stop_id,stop_name,stop_lat,stop_lon,location_type,parent_station,wheelchair_boarding
1,"24 Aout",45.682868740966,4.909324275377,0,S10001,1
2,"24 Aout",45.682818011854,4.909557944678,0,S10001,1
3,"4 Chemins - La Salette",45.749429401672,4.795074398758,0,S10002,1
5,"4 Chemins - La Salette",45.749253462121,4.796120815613,0,S10002,1
6,"4 Chemins - La Salette",45.749402011476,4.795955042363,0,S10002,1
9,"8 Mai - Parc du Roy",45.819487005277,4.865304058399,0,S10003,1
15,"A. Pare-Laennec",45.736953947893,4.884665041605,0,S10006,2
16,"A. Pare-Laennec",45.737846971834,4.884915024687,0,S10006,2
17,"A. Pare-Seignemartin",45.736175969026,4.882848035941,0,S10007,1
18,"Corbas Gabriel Peri",45.675441267422,4.916822936295,0,S10008,2
19,"Corbas Gabriel Peri",45.675860603252,4.91776709625,0,S10008,2
20,"Acacias",45.780544037515,4.789130062445,0,S10009,2
21,"Acacias",45.780058025691,4.788583655647,0,S10009,1
24,"Agronomie",45.774806977373,4.785715975112,0,S10011,1
25,"Agronomie",45.774689973298,4.78553801533,0,S10011,1
29,"Alai - La Raude",45.753466718823,4.775042059709,0,S10014,1
30,"Alai - La Raude",45.753333999722,4.774521861596,0,S10014,1
33,"Albigny Centre",45.865305659281,4.834509429615,0,S10016,1
34,"Albigny Centre",45.864954674808,4.834506346219,0,S10016,1
39,"Albigny Plaine",45.856447034338,4.834822992434,0,S10019,1
40,"Albigny Plaine",45.856121254889,4.834645597619,0,S10019,1
48,"Quai Tilsitt",45.75808588693,4.828265062645,0,S10023,1
50,"Charmettes",45.763324037517,4.86870101249,0,S10024,1
51,"Charmettes",45.764097000212,4.868895941211,0,S10024,1
54,"Ampere",45.816963027637,4.838506958526,0,S10025,2
55,"Ampere",45.817075274172,4.838612093129,0,S10025,2
56,"Ampere - Lavoisier",45.731790030679,4.970342047326,0,S10026,1
58,"Anatole France",45.722034041039,4.894231972746,0,S10027,2
64,"Andre Boulloche",45.718991005965,4.930372061573,0,S10030,1
65,"Andre Brun",45.767741315983,4.966929383379,0,S10031,1
66,"Andre Brun",45.7671107313,4.96656481113,0,S10031,2
70,"Antonins",45.778136449126,4.879060542243,0,S10034,1
71,"Antonins",45.778139358049,4.878932034355,0,S10034,1
73,"Aqueducs de Beaunant",45.724340532471,4.779958945162,0,S10035,2
75,"Arago",45.758003036957,4.88474794587,0,S10037,1
76,"Arago",45.757983011738,4.884253982993,0,S10037,1
77,"Assomption",45.733259472533,4.812860938965,0,S10038,1
78,"Assomption",45.733611301761,4.812825354753,0,S10038,1
80,"Ateliers SNCF",45.719685687727,4.81816148565,0,S10040,1
81,"Ateliers SNCF",45.720300562148,4.818034998247,0,S10040,1
85,"Aubepins",45.751425930832,4.890311350264,0,S10042,1
88,"Audibert Lavirotte",45.735315979714,4.856747039069,0,S10044,2
89,"Audibert Lavirotte",45.734781175733,4.85731383292,0,S10044,2
90,"Austerlitz",45.775384004088,4.835091988411,0,S10045,1
91,"Austerlitz",45.775297336161,4.835103487004,0,S10045,1
92,"Avenue de l'Industrie",45.680427700949,4.922308724223,0,S10046,1
93,"Avenue de l'Industrie",45.679942207769,4.921502602404,0,S10046,1
94,"Avenue de la Paix",45.785586500269,4.748587188213,0,S10047,1
95,"Avenue de la Paix",45.784847040334,4.748882041347,0,S10047,1
96,"Avignon",45.691868024775,4.857096627894,0,S10048,1
97,"Avignon",45.691529315449,4.857749010384,0,S10048,1
98,"Ayasse - Yves Farge",45.735480847971,4.827338555954,0,S10049,1
99,"Ayasse - Yves Farge",45.735996886573,4.82794278841,0,S10049,1
101,"Mermoz",45.741967932359,5.022484112993,0,S10051,2
106,"Bachut - Mairie du 8eme",45.737091977718,4.868614969732,0,S5310,1
108,"Badel",45.770910993291,4.702766950308,0,S10053,2
109,"Badel",45.770799000795,4.702439048577,0,S10053,2
110,"Balmont Bas",45.783203465313,4.800328128258,0,S10054,2
111,"Balmont Bas",45.783558899381,4.800948713069,0,S10054,1
116,"Baraillon",45.764211903266,4.759751531283,0,S10056,2
117,"Baraillon",45.764117820051,4.759940291963,0,S10056,1
118,"Barbesi",45.668136184187,4.864497281869,0,S10057,1
122,"Bas des Chassagnes",45.720890032922,4.811008944881,0,S10060,1
123,"Bas des Chassagnes",45.720440544591,4.811019967619,0,S10060,1
124,"Barolles Centre",45.680539281622,4.785438349885,0,S10061,1
125,"Barolles Centre",45.68047498425,4.786321517368,0,S10061,1
128,"Basso",45.824737755033,4.791555947826,0,S10063,2
129,"Basso",45.825092007054,4.791541004708,0,S10063,2
130,"Bastero - Aquarium",45.726622018977,4.814488961981,0,S10064,1
131,"Bastero - Aquarium",45.725499996743,4.814041981577,0,S10064,1
134,"Bastero - Aquarium",45.725826666156,4.813580401263,0,S10064,1
140,"Batterie",45.74448050225,4.915740573613,0,S10067,2
142,"Foch - Provinces",45.747302034558,4.798502056108,0,S10068,1
143,"Foch - Provinces",45.747869996919,4.798215049638,0,S10068,1
146,"Bechevelin",45.74897392408,4.838909599659,0,S10070,1
147,"Bechevelin",45.750041863687,4.840668211996,0,S10070,1
148,"Bellecombe",45.648390977725,4.845503996187,0,S10071,1
159,"Bellecour Chambonnet",45.758973728007,4.830439952458,0,S10076,2
166,"Bellecour Charite",45.755905251649,4.83323266121,0,S10077,2
179,"Bellegarde",45.871085986129,4.839794024593,0,S10084,1
180,"Bellegarde",45.870761436105,4.839731549435,0,S10084,1
183,"Benoit Bernard",45.738253628432,4.852189570622,0,S10086,1
185,"Benoit Bernard",45.73850835372,4.852471166125,0,S10086,1
187,"Berjon - St Simon",45.776423982116,4.797117279969,0,S10088,2
190,"Paul Berliet",45.705141443741,4.9119323036,0,S10089,1
191,"Berliet Venissieux",45.712842031591,4.899187948595,0,S10090,1
192,"Berliet Venissieux",45.713275990647,4.898510051037,0,S10090,1
195,"Bernard Vallot",45.733791248539,4.893117888622,0,S10092,2
196,"Bernard Vallot",45.733441002809,4.893833004046,0,S10092,2
198,"Berthaudiere",45.775604052122,4.969054986756,0,S10093,2
199,"Berthier",45.745119144279,4.79871293827,0,S5003,1
200,"Berthier",45.746045017833,4.799032063302,0,S5003,1
202,"Bifurcation du Rosay",45.791418777481,4.80864804765,0,S10096,1
203,"Bifurcation du Rosay",45.790420691191,4.808191435859,0,S10096,1
204,"Bir Hakeim",45.75312136384,4.855106720097,0,S10097,1
205,"Bir Hakeim",45.753100665854,4.854424285031,0,S10097,1
209,"Bleriot",45.659161794016,4.948897138392,0,S10099,1
210,"Bleriot",45.658917825396,4.948936920691,0,S10099,1
211,"Bois de Dardilly",45.798754001145,4.757001779368,0,S10100,1
212,"Bois de Dardilly",45.797919066768,4.757737113227,0,S10100,1
213,"Bois de l'Etoile",45.780585039115,4.725276799397,0,S10101,2
214,"Bois de l'Etoile",45.780645031574,4.724571883471,0,S10101,2
215,"Bois de Parilly",45.72559649351,4.913339174788,0,S10102,1
216,"Bois de Parilly",45.725782372077,4.912692415017,0,S10102,1
219,"Bois de Serres",45.795344207327,4.762770778035,0,S10103,1
220,"Bois de Serres",45.795594775832,4.762421539735,0,S10103,1
221,"Bois des Chenes",45.68066970921,4.782349469994,0,S10104,1
222,"Bois des Chenes",45.680712991395,4.782428437457,0,S10104,1
223,"Bois Roux",45.81259001274,4.859866019309,0,S10105,1
224,"Bois Roux",45.812600967175,4.859771010517,0,S10105,1
227,"Bon Coin - Medipole",45.760675985978,4.90607405891,0,S10107,1
230,"Bonnand",45.749439975826,4.884213015677,0,S10108,1
233,"Bonnevay - Bel Air",45.753108441781,4.907696978713,0,S10111,1
235,"Bourdarias",45.724879042146,4.882432002408,0,S10112,1
239,"Bournes",45.777040203511,4.820646674577,0,S10114,1
240,"Bournes",45.776966276124,4.820733380919,0,S10114,1
241,"Boutarey",45.826688192375,4.877959588704,0,S10115,1
242,"Boutarey",45.826557020447,4.877860946136,0,S10115,2
243,"Boyer",45.758876704528,4.784951991579,0,S10116,1
244,"Brindas Centre",45.719904311777,4.693642023856,0,S10117,1
250,"Bron De Lattre",45.734281008336,4.917457948602,0,S10120,1
255,"Bron Jules Mas",45.735728939014,4.911127003491,0,S10122,1
256,"Boutasse - C. Rousset",45.73455552503,4.904195111495,0,S5313,1
266,"Bron Terraillon",45.747164977129,4.923785038755,0,S10127,1
267,"Bron Terraillon",45.747000835881,4.923958735673,0,S10127,1
268,"Brossolette-Genas",45.747886886174,4.91753313609,0,S10128,1
269,"Brossolette-Genas",45.748414970313,4.918117980426,0,S10128,1
276,"Brotteaux",45.76686896898,4.859266037215,0,S5004,1
281,"Brotteaux",45.766667936044,4.859135276346,0,S5004,1
285,"Bruyeres",45.762956347278,4.94127419048,0,S10132,1
286,"Bruyeres",45.762923113313,4.941542698045,0,S10132,1
288,"Buers - Pressense",45.7701279643,4.896423995445,0,S10133,1
289,"Buers - Salengro",45.782600961558,4.890179970715,0,S10134,1
290,"Buers - Salengro",45.782631288477,4.889637818202,0,S10134,1
291,"Bugeaud",45.767043265735,4.852837482519,0,S10135,1
295,"Mions Buzy",45.669350973866,4.957789930367,0,S10138,1
296,"Mions Buzy",45.669273918117,4.95916006434,0,S10138,2
306,"College Louis Aragon",45.693056451502,4.890109587954,0,S10144,1
307,"College Louis Aragon",45.693752623222,4.889974885798,0,S10144,1
310,"Claude Joseph Bonnet",45.774895686048,4.821154380554,0,S10146,1
311,"Charles Perrault",45.77126238132,4.890036181988,0,S10147,1
312,"Charles Perrault",45.771252044112,4.889995956357,0,S10147,1
313,"Cailloux Bellevue",45.853871030291,4.867470998409,0,S10148,2
314,"Cailloux Bellevue",45.853838369914,4.867506335487,0,S10148,2
315,"Cailloux Centre",45.854886018489,4.871396981815,0,S10149,2
316,"Cailloux Centre",45.854736498985,4.870794023783,0,S10149,2
317,"Cailloux Chateau",45.848494790913,4.869758941075,0,S10150,2
318,"Cailloux Chateau",45.848785154325,4.870055709758,0,S10150,2
319,"Cailloux La Croix",45.853147015106,4.865026943404,0,S10151,1
320,"Cailloux La Croix",45.852695358087,4.86469698998,0,S10151,2
321,"Cailloux Mairie",45.851883388643,4.871576952162,0,S10152,2
322,"Cailloux Mairie",45.852236401036,4.872288850954,0,S10152,2
323,"Mermoz - Californie",45.73358802342,4.878370982414,0,S5921,1
325,"Mermoz - Californie",45.733480691806,4.878257282296,0,S5921,1
326,"Caluire Bellerive",45.793585277915,4.82670853706,0,S10154,2
327,"Caluire Bellerive",45.793232264381,4.825984835839,0,S10154,2
328,"Caluire Centre",45.799041029225,4.848162993285,0,S10155,1
329,"Caluire Centre",45.799801964203,4.84761697536,0,S10155,1
333,"Caluire Place Foch",45.797624190254,4.851882286465,0,S10157,1
334,"Caluire Place Foch",45.797851871602,4.851764017022,0,S10157,1
335,"Caluire Thimonnier",45.805115442032,4.869021038367,0,S10158,1
336,"Caluire Thimonnier",45.805080042614,4.868594681271,0,S10158,1
337,"Caluire Victor Hugo",45.8009669699,4.841525055254,0,S10159,2
338,"Caluire Victor Hugo",45.800786441793,4.841281062443,0,S10159,2
339,"Cambon",45.722027723281,4.879591885371,0,S10160,2
340,"Cambon",45.722169848617,4.879675558075,0,S10160,2
341,"Camping International",45.821423539573,4.760948385199,0,S10161,2
342,"Camping International",45.82142825496,4.76072973932,0,S10161,2
343,"Carette",45.786453376099,4.840203573071,0,S10162,1
351,"Carrefour Liberation",45.758618508108,4.775308989536,0,S10164,2
353,"Carry",45.755042247918,4.870946628606,0,S10165,1
354,"Carry",45.755037021155,4.870380600965,0,S10165,1
355,"Castellane",45.808007410273,4.898693816499,0,S5005,2
356,"Castellane",45.808128996119,4.899216012163,0,S5005,1
359,"Centre Psychotherapique",45.817978014428,4.835605946075,0,S10169,1
360,"Centre Psychotherapique",45.818123931441,4.8359821762,0,S10169,2
361,"Centre Social Sauvegarde",45.787085011963,4.790520947774,0,S10170,1
363,"Centre Social La Mulatiere",45.728618450408,4.806573006698,0,S10171,1
364,"Centre Social La Mulatiere",45.728593451945,4.806481918943,0,S10171,1
365,"Centre Sportif",45.695215322359,4.957286847188,0,S10172,1
366,"Centre Sportif",45.694873940799,4.957257756944,0,S10172,1
367,"Francheville Taffignon",45.734712212554,4.77529082635,0,S10173,1
368,"Francheville Taffignon",45.734606815651,4.775170474464,0,S10173,1
371,"Cesar Paulet",45.816798992769,4.841616063641,0,S10175,1
372,"Chabrol",45.733406117245,4.709836480195,0,S10176,2
373,"Chabrol",45.73421895608,4.711633048459,0,S10176,2
374,"Chamagnieu",45.859847410688,4.753498015209,0,S10177,1
375,"Chamagnieu",45.859760009987,4.753498033233,0,S10177,1
378,"Champ Blanc",45.761081009686,4.947217011105,0,S10179,1
379,"Champ Blanc",45.761271030202,4.946799055596,0,S10179,1
383,"Champagne (che.du Pave)",45.801734959098,4.784479951627,0,S10181,1
385,"Champagne (ch.St Didier)",45.800416032831,4.786779972225,0,S10182,1
386,"Champagne (ch.St Didier)",45.800323028787,4.786714956725,0,S10182,1
387,"Champagne Centre",45.79528396096,4.792357962578,0,S10183,1
389,"Champfleury",45.799027041394,4.788237979795,0,S10184,1
390,"Champfleury",45.797828994708,4.789471002653,0,S10184,1
391,"Champoulin",45.758905984001,4.716168027582,0,S10185,1
392,"Champoulin",45.758710037115,4.717238024977,0,S10185,1
393,"Champvert",45.764063562569,4.792268979009,0,S10186,1
394,"Champvert",45.763948629466,4.792996894884,0,S10186,1
395,"Champvillard",45.672684662338,4.81844553443,0,S10187,1
396,"Champvillard",45.67261442928,4.818365335088,0,S10187,2
397,"Chantabeau",45.64151895694,4.837606024972,0,S10188,1
398,"Chantabeau",45.641616985713,4.837758940463,0,S10188,1
399,"Chante Ruisseau",45.772568560047,4.738626860393,0,S10189,1
400,"Chante Ruisseau",45.772523872299,4.73861204653,0,S10189,1
401,"Chantegrillet",45.738816011835,4.773248851165,0,S5740,1
404,"Chantemerle",45.819882979836,4.794113958126,0,S10192,1
405,"Chantemerle",45.819785758492,4.794089656277,0,S10192,1
410,"Charbinat",45.697670653793,4.820874028328,0,S10194,1
411,"Charbinat",45.697539197346,4.819880052898,0,S10194,1
412,"Chardonnet",45.766009040812,4.929860968385,0,S10195,2
413,"Chardonnet",45.766031192324,4.929767093602,0,S10195,2
420,"Charles Richard",45.750479009197,4.887407947258,0,S10199,1
423,"Charly Centre",45.649395654338,4.793269363924,0,S10201,1
425,"Charly Eglise",45.643688447174,4.793297340161,0,S10202,1
426,"Charly Eglise",45.644217578367,4.793385083683,0,S10202,1
427,"Charmet",45.697858971407,4.815878173322,0,S10203,1
428,"Charmet",45.697753045821,4.816479951954,0,S10203,1
434,"Charpennes Charles Hernu",45.770865743126,4.861797397275,0,S5102,1
435,"Charpennes Charles Hernu",45.77071576706,4.861661887268,0,S5102,1
440,"Charriere Blanche",45.780726124965,4.767786111884,0,S10206,2
441,"Charriere Blanche",45.780951956299,4.767332980567,0,S10206,2
443,"Gare de Villeurbanne",45.756231293555,4.891164515711,0,S5562,1
444,"Charton",45.711800156966,4.810663134383,0,S10208,1
449,"Chassieu Lavoisier",45.732991967445,4.966298959629,0,S10211,1
451,"Chassieu Mairie",45.743149016758,4.972563012709,0,S10212,1
452,"Chassieu Mairie",45.742872400881,4.971795985003,0,S10212,1
453,"Chassieu Place",45.738828829014,4.969571171717,0,S5020,1
454,"Chassieu Place",45.73836376273,4.968674750769,0,S5020,1
459,"Chateau Roy",45.829373407043,4.853026786089,0,S10216,2
460,"Chateau Roy",45.828886455938,4.853468018232,0,S10216,2
461,"Chavril",45.743646026652,4.798011051746,0,S10217,1
462,"Chavril",45.744448960753,4.798542950294,0,S10217,1
463,"Chazay",45.745508608049,4.786259889815,0,S10218,1
464,"Chazay",45.745697469178,4.786679695185,0,S10218,1
466,"Chemin Bressan",45.881989981275,4.834330045562,0,S10219,1
467,"Chemin de Grange Blanche",45.663705477272,4.901831018078,0,S10220,1
473,"Chemin des Moulins",45.696811636,4.811822002189,0,S10223,1
474,"Chemin des Moulins",45.696991469243,4.812515618865,0,S10223,1
475,"Chemin des Pivolles",45.753165988968,4.934109993429,0,S10224,1
476,"Chemin des Pivolles",45.75322897468,4.93415000035,0,S10224,1
478,"Chemin du Chene",45.824137037033,4.794454980887,0,S10226,2
479,"Chemin du Chene",45.823901961774,4.794473948423,0,S10226,2
482,"Caluire Chemin Petit",45.803351892313,4.860587117517,0,S10228,1
483,"Caluire Chemin Petit",45.80335329558,4.860123860518,0,S10228,1
484,"Caluire Chemin Petit",45.80401351468,4.860385834982,0,S10228,1
490,"Valpre",45.778524998866,4.787129993794,0,S10231,1
491,"Valpre",45.778406466054,4.787133587927,0,S10231,1
493,"Chorel",45.77469194721,4.864970244187,0,S10232,2
497,"Cimetiere Communautaire",45.72363401204,4.917747971718,0,S10234,1
498,"Cimetiere Communautaire",45.723712543989,4.917761935608,0,S10234,1
500,"Cimetiere Croix-Rousse",45.781253399848,4.820618298277,0,S10235,1
501,"Cimetiere d'Oullins",45.709409659858,4.810948223052,0,S10236,1
502,"Cimetiere d'Oullins",45.709380167421,4.811003942033,0,S10236,1
504,"Cimetiere de Corbas",45.67547001314,4.899583061847,0,S10237,1
506,"Cimetiere de Cusset",45.762361017086,4.911753994329,0,S10238,1
508,"Cimetiere de Ste Foy",45.733244967165,4.796851042463,0,S10239,1
509,"Cimetiere de Ste Foy",45.733033967148,4.796515009019,0,S10239,1
515,"Cimetiere de Loyasse",45.762677974452,4.813470992193,0,S10242,2
516,"Cimetiere de Loyasse",45.762500026513,4.813837984274,0,S10242,1
519,"Cite Ampere",45.708455714391,4.812294952325,0,S10244,1
520,"Cite Ampere",45.708360156274,4.812542211644,0,S10244,1
521,"Cite Berliet",45.710860735835,4.90235774359,0,S10245,1
522,"Cite Berliet",45.711531335814,4.901373939685,0,S10245,1
524,"Cite Berliet centre",45.705297052363,4.901212028682,0,S10247,2
525,"Cite Berliet centre",45.705498687375,4.901054403984,0,S10247,2
526,"Cite de l' Enfance - IDEF",45.72601501374,4.907333002017,0,S10248,1
528,"Cite Edouard Herriot",45.80253502017,4.832539957075,0,S10249,1
529,"Hopital St Jean de Dieu",45.724267040515,4.853982015863,0,S10250,1
530,"Hopital St Jean de Dieu",45.72391608388,4.8541303356,0,S10250,1
531,"Cite Ribaud",45.740544492999,4.950472282165,0,S10251,1
532,"Cite Ribaud",45.740645794233,4.950374247262,0,S10251,1
533,"Cite St Jean",45.776583975024,4.902992875475,0,S10252,1
534,"Cite St Jean",45.776174044716,4.902531998502,0,S10252,1
539,"Claude Farrere",45.687715379337,4.953115471688,0,S10255,1
540,"Claude Farrere",45.688070786789,4.951385625893,0,S10255,1
541,"Claudius Collonge",45.748433212132,4.820293737462,0,S10256,2
546,"College du Tonkin",45.776771428861,4.864962939919,0,S10259,1
547,"College du Tonkin",45.776808843548,4.864900340835,0,S10259,1
550,"Clinique Sauvegarde",45.788899979671,4.788674967052,0,S10261,1
551,"Clinique Sauvegarde",45.788625037969,4.788574057207,0,S10261,1
552,"Apollinaire - Bourbonnais",45.77267800021,4.795711031255,0,S10262,1
553,"Clinique Trarieux",45.744563934091,4.891625651949,0,S10263,1
554,"Clinique Trarieux",45.74460701771,4.891722018972,0,S10263,1
555,"Clos Chaurand",45.69356262439,4.798232068631,0,S10264,1
556,"Clos Chaurand",45.693583143576,4.7981173891,0,S10264,2
559,"Clos des Cedres",45.760255983793,4.787511993702,0,S10266,1
560,"Clos des Cedres",45.760289971312,4.78725798794,0,S10266,1
561,"Clos des Chassagnes",45.724646729954,4.808309644727,0,S10267,1
562,"Clos des Chassagnes",45.72480666714,4.807995541212,0,S10267,1
563,"Clos Jouve",45.772915014261,4.820896015356,0,S10268,1
564,"Clos Jouve",45.773470020631,4.821404985831,0,S10268,1
566,"Clos Rival",45.685589463809,4.794459740711,0,S10269,1
567,"Clos Rival",45.685181165249,4.794197523082,0,S10269,1
572,"Coblod - Rosenberg",45.70048170565,4.892123897589,0,S10272,1
573,"Coblod - Rosenberg",45.70053653403,4.892087903441,0,S10272,1
574,"Colbert",45.772621824039,4.83439025603,0,S10273,1
575,"Colbert",45.772413289272,4.834457961213,0,S10273,1
576,"Coli",45.769160245104,4.945851205152,0,S10274,2
577,"Coli",45.769338356806,4.946708582789,0,S10274,1
579,"Colin",45.776671973158,4.874505013126,0,S10275,1
581,"Colin",45.776949999457,4.874207437229,0,S10275,1
583,"Le Grand Roule",45.73023101428,4.807663945258,0,S10277,1
584,"Le Grand Roule",45.729933963111,4.807452036437,0,S10277,1
585,"Collonges St Martin",45.817685858955,4.843930817827,0,S10278,2
586,"Condorcet",45.778838548065,4.86710341027,0,S5300,1
587,"Condorcet",45.779037034304,4.866327945258,0,S5300,1
588,"Contrebandiers",45.787136085679,4.804878762143,0,S10280,2
589,"Contrebandiers",45.786761973461,4.804928999234,0,S10280,2
592,"Corbas Mairie",45.670151014461,4.8983860575,0,S10282,1
593,"Corbas Mairie",45.671263998256,4.899624038224,0,S10282,1
599,"Cordeliers",45.762799640356,4.838111027672,0,S5021,1
611,"Cote Berthaud",45.67163304378,4.828926214271,0,S10289,1
612,"Cote Berthaud",45.672128614027,4.829308129634,0,S10289,1
619,"Couzon",45.845792029629,4.832424157502,0,S10293,1
620,"Couzon",45.845685835851,4.832342053155,0,S10293,1
621,"Gare et stade de Couzon",45.849375519762,4.832380912381,0,S10294,1
622,"Gare et stade de Couzon",45.848860250288,4.832074125233,0,S10294,1
623,"Craponne Centre",45.747388389233,4.722807214519,0,S10295,1
624,"Craponne Centre",45.747330299493,4.723846050593,0,S10295,1
625,"Craponne Dumont",45.74736421178,4.716313771934,0,S10296,1
626,"Craponne Dumont",45.747325006572,4.716001984861,0,S10296,1
628,"Craponne Mairie",45.74242199315,4.723667062077,0,S10297,1
631,"Craponne Martin",45.747359878561,4.729221250381,0,S10300,1
632,"Craponne Martin",45.747323401687,4.728821120114,0,S10300,1
635,"Crecy",45.800876983191,4.803141984778,0,S10302,2
636,"Crecy",45.800498005892,4.803171952184,0,S10302,2
639,"Crepieux Les Brosses",45.808064988339,4.913524980692,0,S10304,2
640,"Crepieux Les Brosses",45.808102020174,4.9124280116,0,S10304,2
641,"Croix des Rameaux",45.815832966164,4.796686947609,0,S10305,1
642,"Croix des Rameaux",45.815980240855,4.796468268714,0,S10305,1
643,"Croix-Rousse",45.774596830126,4.831821139394,0,S5223,1
644,"Croix-Rousse",45.774463668668,4.83182667456,0,S5223,1
645,"Croizat - Coblod",45.702522753857,4.887478211638,0,S10307,1
647,"Cuers",45.798355097508,4.767973800119,0,S10308,1
648,"Cuers",45.798082173449,4.76769149441,0,S10308,1
655,"Curie - Jules Guesde",45.709127493065,4.885201725237,0,S10312,1
656,"Curie - Jules Guesde",45.709359533008,4.885289555134,0,S10312,1
657,"Curis la Planche",45.871676363282,4.821604146283,0,S10313,1
658,"Curis la Planche",45.872252288428,4.823240964507,0,S10313,1
659,"Curis Lavoir",45.870257956125,4.820412977299,0,S10314,1
660,"Curis Lavoir",45.870163405938,4.820414627039,0,S10314,1
663,"Cuzin - Stalingrad",45.774472667704,4.914998939661,0,S10316,1
664,"Cuzin - Stalingrad",45.774440240212,4.914843056536,0,S10316,1
666,"Cyprian - Genas",45.75219697203,4.901904018226,0,S10317,2
667,"Cyprian - Leon Blum",45.760325006805,4.901287043423,0,S10318,1
669,"Cyrano",45.754761472529,4.879780516074,0,S10319,1
670,"Cyrano",45.754884969713,4.879418977588,0,S10319,1
671,"D'Arsonval - Jacquard",45.727169006175,4.971173957155,0,S10320,1
674,"Dardilly le Bas",45.806915322112,4.75335848984,0,S10321,1
675,"Dardilly le Haut",45.817659969676,4.750553972577,0,S10322,1
676,"Dardilly le Haut",45.817426379127,4.750525303831,0,S10322,1
682,"Dauphine",45.662995023297,4.952235017927,0,S10325,2
687,"De Gaulle - Pont SNCF",45.755126804083,4.771129562486,0,S10328,1
688,"De Gaulle - Pont SNCF",45.754806980699,4.770819028062,0,S10328,1
693,"Debrousse",45.748403924087,4.812655381511,0,S10330,1
694,"Debrousse",45.748663207586,4.813142758617,0,S10330,1
695,"Decines Bascule",45.77138127273,4.961019219213,0,S10331,1
696,"Decines Bascule",45.771461597485,4.961048778529,0,S10331,1
698,"Decines Champ Fleuri",45.773964964647,4.972253954173,0,S10332,2
699,"Decines Eglise",45.763318990486,4.965232047208,0,S10333,1
700,"Decines Eglise",45.763688035916,4.963836996524,0,S10333,1
701,"Decines Gare",45.769912972091,4.952188991254,0,S10334,1
702,"Decines Gare",45.770000987017,4.952216973099,0,S10334,1
707,"Decines Wilson",45.768703127245,4.942665373139,0,S10337,1
708,"Decines Wilson",45.768710954659,4.941975034635,0,S10337,1
709,"Decomberousse",45.762760966762,4.915028693388,0,S10338,1
710,"Decomberousse",45.762738852694,4.915207708391,0,S10338,1
714,"Demi-Lune Clemenceau",45.763777575785,4.777312438835,0,S10340,1
716,"Demi-Lune Mairie",45.7606440397,4.777527950523,0,S10341,1
717,"Demi-Lune Mairie",45.760449982325,4.77742006398,0,S10341,1
720,"Demi-Lune Vauboin",45.764025448843,4.782467606245,0,S10342,1
721,"Demi-Lune Vauboin",45.764107181452,4.782021124544,0,S10342,1
725,"Demi-Lune Vauboin",45.764492958748,4.781976029842,0,S10342,2
726,"Demi-Lune Vauboin",45.76444833126,4.782062011939,0,S10342,2
750,"Descartes",45.7761959935,4.871526956943,0,S10357,1
751,"Desgrand",45.785610997082,4.904827046165,0,S10358,1
752,"Desgrand",45.785374981557,4.906113951449,0,S10358,1
753,"Diderot",45.713306861801,4.809090699607,0,S10359,1
759,"Dorothee Petit",45.669037072581,4.816509534711,0,S10363,1
760,"Dorothee Petit",45.668796467833,4.816806827227,0,S10363,2
761,"Docteur Horand",45.770850676486,4.80211569512,0,S10364,1
762,"Docteur Rebatel",45.749897984297,4.873568043668,0,S10365,1
763,"Duchere Balmont",45.789093037659,4.799789046067,0,S10366,1
764,"Duchere Balmont",45.789432997659,4.799067027821,0,S10366,1
770,"Duchere Capucines",45.789411523947,4.794288883329,0,S10369,1
771,"Duchere Capucines",45.789443001022,4.794216050987,0,S10369,1
772,"Duchere Chateau",45.781139043612,4.793012985064,0,S10370,1
773,"Duchere Chateau",45.780976146086,4.794349272363,0,S10370,1
778,"Duchere Piscine",45.78753471461,4.799840304858,0,S10373,1
779,"Duchere Piscine",45.787080989325,4.799478002356,0,S10373,1
788,"Duclos",45.697657037352,4.887531066443,0,S10376,1
789,"Duclos",45.697367966042,4.887782035251,0,S10376,1
796,"Dumas",45.776446851438,4.887279620475,0,S10378,2
801,"Dumas - Salengro",45.753505512067,4.92879092483,0,S10380,2
805,"Duquesne - Foch",45.772496891083,4.843632869189,0,S10382,1
806,"Duquesne - Foch",45.772157383417,4.843115749683,0,S10382,1
807,"Duquesne - Foch",45.772824809468,4.843056128043,0,S10382,1
808,"Duquesne - Foch",45.772518113687,4.842681994238,0,S10382,1
810,"Duroc",45.769106010649,4.817795979923,0,S10383,1
813,"Emile Vial",45.745138286277,4.929386710765,0,S10385,1
814,"Emile Vial",45.745311206826,4.92930486127,0,S10385,1
815,"Echangeur du Perollier",45.787872847039,4.782717863242,0,S10386,1
816,"Echangeur du Perollier",45.787412276586,4.78278743491,0,S10386,1
817,"Cite Inter Transbordeur",45.784429657479,4.86024602756,0,S5660,1
818,"Cite Inter Transbordeur",45.784390471659,4.859986917059,0,S5660,1
823,"Dardilly Les Gorges",45.807450497169,4.764025904054,0,S10390,1
824,"Dardilly Les Gorges",45.807489980254,4.763743981704,0,S10390,1
825,"Ecole de Sante",45.728117019903,4.924899988429,0,S10391,2
828,"Ecole Veterinaire",45.790121081125,4.708514693369,0,S10393,1
829,"Ecole Veterinaire",45.790081853798,4.708667395057,0,S10393,1
832,"La Mulatiere Mairie",45.729091968806,4.810411420755,0,S10395,1
833,"La Mulatiere Mairie",45.729010990815,4.810213967086,0,S10395,1
834,"Ecully Centre",45.774485973529,4.779099677644,0,S10396,1
835,"Ecully Centre",45.774521663568,4.779114125562,0,S10396,1
836,"Ecully Centre",45.774733135375,4.778081620895,0,S10396,1
839,"Ecully Le Trouillat",45.776602033636,4.774024007905,0,S10399,1
840,"Ecully Le Trouillat",45.776001359,4.774394729937,0,S10399,1
842,"Edgar Quinet",45.765800965979,4.844546016083,0,S10401,1
843,"Edgar Quinet",45.765654745214,4.844491377074,0,S10401,1
844,"Egalite - Farrere",45.688292189954,4.94961087073,0,S10402,1
845,"Egalite - Farrere",45.688323073842,4.949830677816,0,S10402,1
846,"Eglantines",45.740743762711,4.962759145439,0,S10403,2
847,"Eglantines",45.740367014559,4.962702597671,0,S10403,2
848,"Eglise Demi-Lune",45.764642781595,4.785530154628,0,S5882,1
849,"Eglise Demi-Lune",45.764725723604,4.786266902435,0,S5882,1
852,"Emile Chanel",45.77775602975,4.816138976658,0,S10406,1
853,"Entree de Decines",45.76744181792,4.934553962787,0,S10407,1
854,"Entree de Decines",45.767705983793,4.935450066752,0,S10407,1
856,"Entree de Decines",45.768289483694,4.936433302505,0,S10407,1
867,"Etats-Unis Leriche",45.727473334811,4.869253122769,0,S10411,1
873,"Etats-Unis Viviani",45.725410973002,4.870512046311,0,S5703,2
874,"Etats-Unis Viviani",45.724880771267,4.871254374435,0,S5703,1
877,"Etoile d'Alai",45.753396791761,4.76913718486,0,S10415,1
885,"Evellier",45.748936015688,4.694495062345,0,S10420,1
886,"Evellier",45.748991307673,4.694656594975,0,S10420,1
887,"Falsan",45.804490044202,4.834628627047,0,S10421,2
897,"College Plan du Loup",45.735291223975,4.78837586119,0,S5881,1
898,"College Plan du Loup",45.735219044875,4.789619458341,0,S5881,1
899,"Felix Faure - Vivier Merle",45.754051511802,4.859150219666,0,S10429,1
900,"Felix Faure - Vivier Merle",45.753965515402,4.859456166036,0,S10429,1
901,"Felix Faure - Vivier Merle",45.753601350083,4.858986208187,0,S10429,1
902,"Felix Faure - Vivier Merle",45.75363352087,4.858756231915,0,S10429,1
903,"Felix Jacquier",45.772970546866,4.848619523046,0,S10430,1
904,"Felix Jacquier",45.772880285449,4.847020407706,0,S10430,1
907,"Feuillat - Albert Thomas",45.74463402933,4.8746609938,0,S10432,1
908,"Feuillat - Albert Thomas",45.744201029379,4.875088420141,0,S10432,1
910,"Feuillat - Freres Lumiere",45.743305906681,4.874468602696,0,S10433,1
911,"Feuillat - Freres Lumiere",45.743416142036,4.873972299154,0,S10433,1
912,"Feuillat - Lacassagne",45.750141554342,4.875105351367,0,S10434,2
913,"Feuillat - Lacassagne",45.749604995138,4.876051983428,0,S10434,1
914,"Feyzin Chateau de l'Isle",45.672225977299,4.850343317796,0,S10435,2
918,"Feyzin Les Razes",45.66620595416,4.849285062105,0,S10437,2
919,"Filature",45.777769317034,4.884536567398,0,S10438,2
920,"Filature",45.777715365055,4.88453406764,0,S10438,2
925,"Fleurieu",45.863032958205,4.840564030935,0,S10441,1
926,"Fleurieu",45.862895269116,4.840493847826,0,S10441,1
928,"Florian",45.75683301076,4.879850048421,0,S10442,1
930,"Foch - Roosevelt Metro",45.769106975283,4.843855978527,0,S5182,1
931,"Foch - Roosevelt Metro",45.76827502304,4.843947057453,0,S5182,1
932,"Fonderie",45.782585145663,4.918827296095,0,S10444,1
933,"Fonderie",45.782586622891,4.918763038014,0,S10444,1
934,"Fontaines Centre",45.835017536536,4.846975398484,0,S10445,1
942,"Fontrobert",45.673075991817,4.949377120639,0,S10450,2
943,"Fontrobert",45.674958826777,4.949312328535,0,S10450,1
944,"Fort de Bron",45.731180012382,4.917539012075,0,S10451,1
949,"Fort de Montessuy",45.791895035305,4.848678967152,0,S10452,1
954,"Foucaud - Picasso",45.774026768508,4.921474094028,0,S10455,1
955,"Foucaud - Picasso",45.774604197262,4.921025280196,0,S10455,1
962,"Francheville Bel Air",45.747401034661,4.756782043563,0,S5764,1
963,"Francheville Bel Air",45.747347586144,4.755833332671,0,S5764,1
976,"Francis Poulenc",45.746961287781,4.961333019201,0,S10468,2
977,"Francis Poulenc",45.747136276587,4.962318532078,0,S10468,2
980,"Frere Benoit",45.763769320172,4.795020836439,0,S10470,1
981,"Frere Benoit",45.763572313027,4.795796515891,0,S10470,1
984,"Fromentin",45.872487140755,4.763847608414,0,S10472,1
985,"Fromentin",45.872516062371,4.763758686823,0,S10472,1
986,"Fromont",45.776055782387,4.937302162517,0,S10473,2
988,"Gabriel Rosset",45.729916017156,4.839505037257,0,S10474,1
989,"St Genis Gadagne",45.700685973861,4.79560881332,0,S10475,1
990,"St Genis Gadagne",45.701737770555,4.796079696135,0,S10475,1
999,"Garanjou",45.705189358192,4.816310609846,0,S10482,1
1000,"Garanjou",45.70521531129,4.816354044796,0,S10482,1
1001,"Garanteze",45.678449890299,4.825549329165,0,S10483,2
1002,"Garanteze",45.678439759111,4.825600234174,0,S10483,2
1007,"Archives Departementales",45.754039999542,4.862696711236,0,S5907,1
1008,"Archives Departementales",45.754080013967,4.862518529169,0,S5907,1
1010,"Gare de Vaise",45.781024104434,4.804887440361,0,S5103,1
1012,"Gare de Vaise",45.781226690744,4.805089502292,0,S5103,1
1015,"Garibaldi - Gambetta",45.751793455541,4.853310110918,0,S10488,1
1018,"Genas Place Republique",45.732505006088,4.996866455406,0,S10490,1
1019,"Genas Place Republique",45.732544320184,4.99672695937,0,S10490,1
1021,"Genas - Bonnevay",45.750641982725,4.907136959918,0,S10492,1
1022,"Genas - Bonnevay",45.75163246868,4.908078039467,0,S10492,1
1024,"Genas La Grande Plaine",45.728613981942,5.020973948811,0,S10493,1
1025,"Genas La Grande Plaine",45.728583228133,5.020931189339,0,S10493,1
1026,"Danton - Republique",45.731644311271,5.002030731201,0,S10494,2
1027,"Danton - Republique",45.731766994782,5.001792445697,0,S10494,2
1029,"Genas Place Jean Jaures",45.738257974203,5.016602052759,0,S10495,2
1037,"Genay Le Perron",45.891131009692,4.832896034093,0,S10499,2
1038,"Genay Madone",45.89553548617,4.834364274235,0,S10500,1
1039,"Genay Madone",45.895991783198,4.835300349345,0,S10500,1
1040,"General Andre",45.727771959329,4.877942259695,0,S10501,1
1041,"General Andre",45.727741988888,4.878116954554,0,S10501,1
1042,"General Frere",45.726840006565,4.886882965976,0,S10502,2
1043,"General Frere",45.726783015218,4.887030054432,0,S10502,2
1044,"Genevrey",45.820817933316,4.880404555661,0,S10503,1
1045,"Genevrey",45.820772099843,4.880441056531,0,S10503,1
1046,"Genovefains",45.753575005537,4.816141992036,0,S10504,1
1059,"Gorge de Loup",45.7658807736,4.804632315637,0,S5040,1
1061,"Gorge de Loup",45.766926939215,4.804949342839,0,S5040,1
1062,"Gorgeat",45.868946021286,4.839792966473,0,S10514,1
1063,"Gorgeat",45.868598983923,4.839665042378,0,S10514,1
1064,"Grand Chassagnon",45.701295441268,4.863758528804,0,S10515,2
1065,"Grand Chassagnon",45.701384782722,4.86378832129,0,S10515,2
1066,"Meyzieu Grand Large",45.777645974653,4.993506982003,0,S10516,1
1067,"Meyzieu Grand Large",45.77731354799,4.992794813504,0,S10516,1
1068,"Grand Trou",45.735585492045,4.853160214411,0,S10517,1
1069,"Grand Trou",45.735584052352,4.853224419356,0,S10517,1
1070,"Grand Vire",45.778859967445,4.916836013918,0,S10518,1
1071,"Grand Vire",45.778185231164,4.917179867725,0,S10518,1
1072,"Grand Vire",45.778318203267,4.916877360218,0,S10518,1
1076,"Grandclement",45.759325040533,4.88984897111,0,S10519,1
1077,"Grandclement",45.759332042675,4.8902060297,0,S10519,1
1084,"Grandvaux",45.772338873987,4.777666640365,0,S10523,2
1085,"Grandvaux",45.771523805038,4.776652940893,0,S10523,2
1086,"Grange Blanche",45.743312671619,4.878942832166,0,S5041,2
1087,"Grange Blanche",45.742783890382,4.878841265531,0,S5041,1
1089,"Grange Blanche",45.743103554161,4.87863748137,0,S5041,1
1091,"Grange Blanche",45.743132832123,4.878934523153,0,S5041,1
1095,"Grange Blanche",45.742975314237,4.879132941786,0,S5041,1
1097,"Grange Blanche - Viala",45.744333034213,4.885636067914,0,S10526,1
1098,"Grange Bruyere",45.751069104196,4.800753530274,0,S10527,1
1099,"Grange Bruyere",45.751432014604,4.801729988604,0,S10527,1
1100,"Grange Haute",45.675087656384,4.82252130218,0,S10528,2
1101,"Grange Haute",45.675288216638,4.82281283012,0,S10528,1
1102,"Grange Rouge Santy",45.731206461477,4.874142043085,0,S5920,1
1103,"Grange Rouge Santy",45.732009018934,4.873541001411,0,S5920,1
1105,"Gratte-Ciel Metro",45.768668457564,4.882172797385,0,S5042,1
1106,"Gratte-Ciel Metro",45.769066976553,4.881846022326,0,S5042,1
1108,"Greillon",45.767212037933,4.814891077223,0,S10531,1
1112,"Grezieu la Varenne",45.747174027486,4.691184720909,0,S10534,1
1113,"Grezieu la Varenne",45.747508036319,4.691863032032,0,S10534,1
1114,"Gros Platane",45.837429417965,4.838921009534,0,S10535,1
1115,"Gros Platane",45.837373746703,4.83899574099,0,S10535,1
1120,"Saxe - Prefecture",45.759116701617,4.845839345572,0,S5400,1
1121,"Saxe - Prefecture",45.759792258773,4.845818721298,0,S5400,1
1122,"Saxe - Prefecture",45.760228954344,4.845208506878,0,S5400,1
1125,"Guillermin - Terraillon",45.745306032367,4.918594900957,0,S10540,1
1126,"Guillermin - Terraillon",45.745422335306,4.918626072146,0,S10540,1
1131,"Guimet",45.855225986455,4.839677962658,0,S10542,2
1132,"Guimet",45.855960990195,4.839938965545,0,S10542,1
1133,"Guynemer",45.683630227763,4.934466729007,0,S10543,1
1134,"Guynemer",45.683466296742,4.934548894735,0,S10543,1
1136,"Hameau du Puy d'Or",45.819811386154,4.775141007873,0,S10544,1
1137,"Harmonie",45.748347981034,4.872737997369,0,S10545,1
1138,"Harmonie",45.747320669684,4.875258061164,0,S10545,1
1140,"Hauteclair",45.692339700793,4.7897146601,0,S10546,2
1141,"Haute Roche Centre",45.699734085897,4.827731624726,0,S10547,1
1142,"Haute Roche Centre",45.700084207919,4.827773154241,0,S10547,1
1143,"Hauts de Solaize",45.645531562761,4.84217045166,0,S10548,2
1153,"Henon - Deleuvre",45.7801862577,4.825317065816,0,S10553,1
1154,"Henon - Deleuvre",45.779950182028,4.825409296786,0,S10553,1
1155,"Henri Gorjus",45.779608377025,4.823772925901,0,S10554,1
1156,"Henri Gorjus",45.779574797712,4.823256835838,0,S10554,1
1157,"Henriette",45.748835986816,4.786302987495,0,S10555,1
1158,"Henriette",45.748853999446,4.786352002864,0,S10555,1
1159,"Herbepin",45.713811871235,4.967321045768,0,S10556,2
1160,"Herbepin",45.713971049066,4.967058807943,0,S10556,1
1161,"Herriot - Cagne",45.693781009376,4.875641677163,0,S5709,1
1162,"Herriot - Cagne",45.693751432446,4.875357734395,0,S5709,1
1169,"HLM Republique",45.707178964196,4.870488976934,0,S10560,1
1178,"Hopital Croix-Rousse",45.77999603943,4.829214989739,0,S10563,1
1179,"Hopital Croix-Rousse",45.781393940681,4.833360726176,0,S10563,1
1180,"Hopital Henry Gabrielle",45.690322040066,4.794133945606,0,S10564,1
1182,"Hopital Lyon Sud",45.699970037935,4.806304954161,0,S10565,1
1189,"Hotel de Ville - L. Pradel",45.767167004868,4.835998964208,0,S5046,2
1190,"Hotel de Ville - L. Pradel",45.767201338669,4.836086181655,0,S5046,2
1191,"Hotel de Ville - L. Pradel",45.769225026113,4.83778305846,0,S5046,1
1192,"Hotel de Ville - L. Pradel",45.768088170652,4.838300104064,0,S5046,1
1198,"Hotel de Ville - L. Pradel",45.766534518712,4.835309924824,0,S5046,2
1206,"Ile Barbe",45.795680705231,4.830445115884,0,S10572,2
1207,"Ile Barbe",45.795823153971,4.830515918437,0,S10572,2
1208,"Ile Roy",45.824166639084,4.858826650757,0,S10573,2
1209,"Ile Roy",45.824385624905,4.858695078495,0,S10573,2
1210,"Ile Tabard",45.664470557924,4.825983429436,0,S10574,1
1211,"Ile Tabard",45.664815836338,4.826242940163,0,S10574,1
1212,"Impasse Mathieu",45.788275696537,4.839617499043,0,S10575,1
1213,"Impasse Mathieu",45.78821904131,4.839497964394,0,S10575,1
1218,"Irigny Vieux Port",45.677270093395,4.831248537854,0,S10578,1
1219,"Irigny Vieux Port",45.677635057166,4.831431990717,0,S10578,1
1221,"Irigny Mairie",45.672781131399,4.822622663852,0,S10580,1
1223,"Jean Collet",45.78094518618,5.000612371282,0,S10582,2
1224,"Jean Collet",45.781007517486,5.000641122294,0,S10582,2
1235,"Jamen Grand",45.794904300562,4.840665638155,0,S10587,1
1236,"Jamen Grand",45.795184964125,4.840932050846,0,S10587,1
1237,"Jardin des Plantes",45.771014083924,4.828966514468,0,S10588,1
1238,"Jardin des Plantes",45.771085165951,4.82900832261,0,S10588,1
1239,"Jaricot",45.759627364855,4.815963936003,0,S10589,1
1244,"Jean Bart",45.745914990212,4.880888724355,0,S10591,1
1248,"Jean Mace",45.745673272457,4.842012179096,0,S5160,2
1252,"Jean Mace",45.746983461552,4.842997523881,0,S5160,1
1253,"Jean Mace",45.745669207755,4.842206383596,0,S5160,2
1260,"Jean Marcuit",45.787881497972,4.814767700002,0,S10596,1
1263,"Jean Zay",45.768200555174,4.801058012775,0,S10598,1
1264,"Joannes Carret",45.793042020491,4.821432987711,0,S10599,1
1265,"Joannes Carret",45.792268033119,4.820357046673,0,S10599,1
1266,"Joannes Masset",45.76959402494,4.800906043315,0,S10600,1
1268,"Joliot Curie",45.754806016248,4.788385949077,0,S10602,1
1269,"Joliot Curie",45.754911844119,4.78845302819,0,S10602,1
1270,"Jonage Chateau des Marres",45.799905148575,5.059485594482,0,S10603,2
1272,"Jonage Le Vivier",45.79869298525,5.053511001745,0,S10604,2
1273,"Jonage Mairie",45.796371975258,5.047331945985,0,S10605,2
1274,"Jonage Mairie",45.796333020004,5.046969037891,0,S10605,1
1275,"Jonage Pradel",45.790327498133,5.041948218627,0,S10606,2
1276,"Jonage Pradel",45.79037121703,5.042001841979,0,S10606,2
1283,"Decines Jules Ferry",45.763788342677,4.961595813132,0,S10610,1
1284,"Decines Jules Ferry",45.763987395371,4.96078218497,0,S10610,1
1289,"Kergomard",45.690342167889,4.95704212739,0,S10613,1
1290,"Kergomard",45.690316991935,4.956963864692,0,S10613,1
1293,"Kruger - Voillot",45.75355796886,4.909685360279,0,S10615,1
1294,"Kruger - Voillot",45.753260990203,4.910714944911,0,S10615,1
1295,"L'Aigas",45.770215710036,4.741739525371,0,S10616,1
1296,"L'Aigas",45.770105873656,4.741824754008,0,S10616,1
1298,"L'Aventuriere",45.886892824653,4.836046159252,0,S10618,1
1303,"L'Hormet",45.739686853427,4.806298500263,0,S10621,1
1304,"L'Hormet",45.739694150193,4.806375956964,0,S10621,1
1305,"L'Oiselet",45.802751990369,4.802565008438,0,S10622,1
1306,"L'Oiselet",45.802698008297,4.802531056247,0,S10622,1
1308,"Gare de Francheville",45.735364993684,4.768611027305,0,S10623,1
1312,"La Baticoliere",45.816694021071,4.829949982164,0,S10626,1
1314,"La Begude",45.6746629813,4.860658036091,0,S10627,1
1315,"La Begude",45.675082978252,4.860769983056,0,S10627,1
1316,"La Blache",45.857232039389,4.808815256128,0,S10628,2
1317,"La Blache",45.856399767753,4.808185207042,0,S10628,1
1318,"La Blanchisserie",45.876465973897,4.843528014049,0,S10629,1
1320,"La Borelle",45.711071540048,4.882041019919,0,S5705,1
1321,"La Borelle",45.711200302527,4.882316793823,0,S5705,1
1327,"La Buissiere - Viralamande",45.803548008465,4.881572009025,0,S10633,1
1328,"La Buissiere - Viralamande",45.803268236059,4.881059565676,0,S10633,1
1331,"La Buissonniere",45.844767649894,4.867783875612,0,S10634,1
1332,"La Buissonniere",45.844533564857,4.867785967834,0,S10634,1
1333,"La Bussiere",45.719643440514,4.802932079406,0,S10635,1
1334,"La Bussiere",45.719601263147,4.803212893441,0,S10635,1
1335,"La Cadiere",45.723207747225,4.802937561457,0,S10636,1
1338,"La Chardonniere",45.734162007643,4.765182057807,0,S10638,1
1339,"La Chardonniere",45.734077004551,4.765270979627,0,S10638,1
1342,"La Chenaie - Fontanieres",45.725320206658,4.81083308331,0,S10640,1
1343,"La Chopinette",45.730246969445,4.743610965879,0,S10641,1
1344,"La Chopinette",45.730804166628,4.74368031639,0,S10641,1
1349,"La Combe",45.810157108842,4.844900249382,0,S10644,2
1350,"La Combe",45.809317486322,4.844205491985,0,S10644,2
1353,"La Courtille - Bramafan",45.73096598769,4.801186987065,0,S10646,1
1354,"La Courtille - Bramafan",45.730911017742,4.801571009182,0,S10646,1
1357,"La Creuzette",45.831040212867,4.855369394569,0,S10648,1
1358,"La Creuzette",45.830303312517,4.856520233162,0,S10648,1
1361,"La Croix",45.833821012009,4.771442967512,0,S10650,1
1362,"La Croix",45.833396982582,4.771404988714,0,S10650,1
1363,"La Croix de Presles",45.841821899944,4.793208110899,0,S10651,2
1364,"La Croix de Presles",45.84204277466,4.793398291597,0,S10651,2
1365,"La Croix de Solaize",45.639424977087,4.844079948231,0,S10652,2
1374,"La Favorite",45.756533000052,4.806814039055,0,S10657,1
1375,"La Favorite",45.756153027855,4.804928863756,0,S10657,1
1376,"La Favorite",45.756025813365,4.806620502553,0,S10657,1
1377,"La Feuillee",45.766118971809,4.830667965863,0,S10658,2
1379,"La Feuillee",45.766408970213,4.830429806707,0,S10658,2
1382,"La Folie",45.807959965822,4.881255017073,0,S10659,1
1383,"La Folie",45.808096957956,4.881160062808,0,S10659,1
1384,"La Fontaine",45.740445908654,4.978519145291,0,S10660,2
1385,"La Fontaine",45.740295981624,4.978547943697,0,S10660,2
1386,"La Forestiere",45.765795928242,4.768502322335,0,S10661,2
1387,"La Forestiere",45.766087112201,4.768772413066,0,S10661,2
1388,"La Foret",45.86456098329,4.813229514138,0,S10662,1
1389,"La Foret",45.864881590706,4.813385701879,0,S10662,2
1393,"La Gabrielle",45.808240019177,4.77975005995,0,S10664,1
1394,"La Gadiniere",45.669699979969,4.790908013541,0,S10665,2
1395,"La Gadiniere",45.669704024572,4.79096994672,0,S10665,2
1396,"La Garde ND des Minimes",45.759350157554,4.790065373027,0,S10666,1
1397,"La Garde ND des Minimes",45.759182127311,4.7907522837,0,S10666,1
1399,"La Garenne",45.666288982596,4.858641970572,0,S10667,1
1400,"La Grande Charriere",45.876579569301,4.863747889287,0,S10668,2
1401,"La Grande Plaine",45.715450233826,4.962323566023,0,S10669,2
1402,"La Grande Plaine",45.715961913016,4.961230007436,0,S10669,1
1403,"La Grande Serve",45.670510522,4.850175181773,0,S10670,1
1404,"La Grande Serve",45.670449016068,4.850108181183,0,S10670,1
1405,"La Grange",45.744740911583,4.966202716692,0,S10671,2
1406,"La Grange",45.744608744601,4.966080688482,0,S10671,1
1412,"La Levee",45.722230720338,4.786727562228,0,S10674,1
1413,"La Levee",45.722078152784,4.787119142183,0,S10674,1
1414,"La Madone",45.777825003143,4.696213973273,0,S10675,1
1415,"La Madone",45.777803027487,4.696445983429,0,S10675,1
1416,"La Maillette",45.698032195008,4.82444088806,0,S10676,1
1417,"La Maillette",45.698076713618,4.824564286796,0,S10676,1
1418,"La Maillette",45.697658742409,4.824310851906,0,S10676,1
1419,"La Maillette",45.697621350773,4.824373388594,0,S10676,1
1420,"La Mouche",45.694740878031,4.820723893334,0,S10677,2
1421,"La Mouche",45.694684367238,4.820836944451,0,S10677,2
1424,"La Pagere - Les Brosses",45.748967010471,4.914793701263,0,S10679,1
1426,"La Pagere - Les Brosses",45.748588030093,4.914441647073,0,S10679,1
1429,"Pateliere - Millaud",45.747366863231,4.745729063588,0,S10681,1
1430,"Pateliere - Millaud",45.747351083419,4.74562552188,0,S10681,1
1431,"La Pelletiere",45.807313041381,4.892887061994,0,S10682,1
1432,"La Pelletiere",45.807358966291,4.892724061109,0,S10682,1
1433,"La Pillardiere",45.730412997736,4.703336975872,0,S10683,1
1434,"La Pillardiere",45.730303009678,4.703225959197,0,S10683,1
1435,"La Plaine",45.744589966384,4.784279037468,0,S10684,1
1436,"La Plaine",45.744801010383,4.782921966262,0,S10684,1
1437,"La Poudriere",45.770851000496,4.816817170133,0,S10685,1
1439,"La Remillote",45.795496800522,4.804121762031,0,S10687,1
1440,"La Remillote",45.795415986022,4.804080045823,0,S10687,1
1441,"La Riviere",45.854824578057,4.804494522616,0,S10688,2
1442,"La Riviere",45.854750987856,4.804156288963,0,S10688,2
1443,"La Rochette - Cercle d'Aviron",45.791738267614,4.823536769515,0,S10689,1
1444,"La Rochette - Cercle d'Aviron",45.790428506422,4.821303032929,0,S10689,2
1445,"La Roue",45.822920976454,4.88959097807,0,S10690,1
1446,"La Roue",45.822900008792,4.889673947368,0,S10690,1
1447,"La Sabliere",45.808315522597,4.906881535625,0,S5322,2
1448,"La Sabliere",45.80839601243,4.9068100017,0,S5322,2
1449,"La Sarra",45.761287992644,4.814964975991,0,S10692,2
1450,"La Sarra",45.761387996889,4.814915983988,0,S10692,1
1454,"La Saulaie",45.717871731965,4.818375265602,0,S10693,1
1455,"La Sauvagere",45.795439184859,4.825505708879,0,S10694,1
1456,"La Sauvagere",45.795019065129,4.824560199792,0,S10694,1
1459,"La Tour",45.682733291656,4.861430153034,0,S10696,1
1460,"La Tour",45.68266919243,4.861478582528,0,S10696,1
1461,"La Tour de Salvagny",45.815020973541,4.71774595016,0,S10697,1
1462,"La Tour de Salvagny",45.815103549912,4.717637927135,0,S10697,1
1463,"La Tourette",45.747384031515,4.736182056432,0,S5766,1
1464,"La Tourette",45.747331484049,4.736033845878,0,S5766,1
1465,"La Tuilerie",45.801783918948,4.781689628477,0,S10699,2
1466,"La Tuilerie",45.801788965892,4.782011970725,0,S10699,2
1467,"La Velette",45.814944552041,4.90553096652,0,S10700,1
1469,"La Vernique",45.773278022201,4.783223030344,0,S10701,1
1470,"La Vernique",45.773612103518,4.782443750368,0,S10701,1
1471,"La Vigie",45.765769902844,4.810080392774,0,S10702,2
1472,"La Vigie",45.765994978299,4.809967948353,0,S10702,2
1473,"La Villette",45.756671201538,4.862971840584,0,S10703,1
1474,"La Villette",45.75681825391,4.862837142855,0,S10703,1
1475,"La Vosne",45.876803867645,4.849311620582,0,S10704,2
1476,"La Vosne",45.876622217808,4.848981126871,0,S10704,2
1477,"La Voute",45.784073993171,4.808238984853,0,S10705,1
1478,"La Voute",45.784408967683,4.808188042709,0,S10705,2
1479,"La Vuldy",45.758187446575,4.719932336318,0,S10706,1
1480,"La Vuldy",45.758105142671,4.720417402842,0,S10706,2
1481,"Laborde",45.785432229971,4.813177768493,0,S10707,1
1483,"Lacassagne - Eugenie",45.746581997517,4.887512065223,0,S10708,1
1489,"Lamothe - Madeleine",45.745793200467,4.849267549187,0,S10710,1
1490,"Lamothe - Madeleine",45.745604687293,4.847498761336,0,S10710,1
1492,"Lancon",45.77223798557,4.896013990845,0,S10711,1
1493,"Langevin",45.701465297375,4.881327207827,0,S10712,1
1494,"Langevin",45.702061966141,4.881213469548,0,S10712,1
1495,"Laquay",45.692574687978,4.898603046635,0,S10713,2
1496,"Laquay",45.692282845338,4.898769290952,0,S10713,2
1501,"Lassausaie",45.872650499678,4.77045236165,0,S10715,2
1504,"Laurent Bonnevay",45.765145504908,4.908786955184,0,S5101,1
1505,"Laurent Bonnevay",45.764703592829,4.909216433799,0,S5101,1
1506,"Laurent Bonnevay",45.764993393698,4.909139958952,0,S5101,1
1507,"Laurent Bonnevay",45.76496919857,4.908624374658,0,S5101,1
1508,"Laurent Bonnevay",45.764873982362,4.908851425582,0,S5101,1
1509,"Laurent Bonnevay",45.76508269236,4.908385316228,0,S5101,1
1510,"Laurent Bonnevay",45.765130594292,4.908258942436,0,S5101,1
1511,"Laurent Bonnevay",45.764808095985,4.908976957221,0,S5101,1
1512,"Laurent Bonnevay",45.764760487583,4.909090482143,0,S5101,1
1513,"Laurent Bonnevay",45.764921296228,4.908750747761,0,S5101,1
1514,"Laurent Bonnevay",45.764927506998,4.909265490518,0,S5101,1
1515,"Laurent Bonnevay",45.765025798395,4.908511269351,0,S5101,1
1518,"Le Bastion",45.759294955622,4.814194018735,0,S10717,1
1519,"Le Bastion",45.759057498927,4.814459416401,0,S10717,2
1520,"Le Belvedere",45.73204903323,4.745649821897,0,S10718,1
1521,"Le Belvedere",45.731732092702,4.745738771404,0,S10718,1
1522,"Le Bochu",45.737108401503,4.755653169794,0,S10719,1
1523,"Le Bochu",45.736966877189,4.755119936074,0,S10719,1
1524,"Le Broteau",45.685044865143,4.827298487279,0,S10720,1
1525,"Le Broteau",45.684932400359,4.827498877365,0,S10720,1
1526,"Le Buisset",45.724155676183,4.804856312817,0,S10721,2
1527,"Le Cantin",45.842294027503,4.850450454671,0,S10722,2
1528,"Le Cantin",45.842283597149,4.85051437286,0,S10722,2
1529,"R.N.6 - A. Pare",45.710784997346,4.976160051482,0,S10723,1
1531,"Le Chene Rond",45.795164520166,4.741402688941,0,S10724,2
1532,"Le Chene Rond",45.794366110788,4.741277694407,0,S10724,2
1533,"Le Colin",45.808124014564,4.800134039459,0,S10725,1
1534,"Le Colin",45.807744002444,4.800666974309,0,S10725,1
1535,"Le Creuzet",45.885937159155,4.832058523574,0,S10726,1
1540,"Oullins Le Golf",45.720141697679,4.782638175979,0,S10729,2
1542,"Le Gregoire",45.815431849911,4.75077237636,0,S10731,1
1543,"Le Gregoire",45.815812021827,4.750673225256,0,S10731,1
1544,"Le Guillot",45.759796950387,4.731009506772,0,S10732,1
1545,"Le Guillot",45.759739707593,4.731161325403,0,S10732,1
1546,"Le Meridien",45.773754364005,4.752583038581,0,S10733,1
1547,"Le Meridien",45.775412959891,4.752206983131,0,S10733,1
1548,"Le Meruzin",45.818014983821,4.794850054026,0,S10734,2
1549,"Le Meruzin",45.817680968437,4.794948009238,0,S10734,1
1550,"Le Molard",45.771182037079,4.967933002431,0,S10735,1
1551,"Le Molard",45.771060371082,4.967808455233,0,S10735,2
1554,"Le Pelet",45.654668428943,4.793761086955,0,S10737,1
1555,"Le Pelet",45.655206822137,4.794657877035,0,S10737,1
1559,"Le Plat",45.770419036301,4.77405727425,0,S10740,2
1560,"Le Plat",45.770509372178,4.774871578025,0,S10740,1
1561,"Le Prainet",45.765049531703,4.966556286009,0,S10741,2
1562,"Le Prainet",45.764696217485,4.965883452625,0,S10741,2
1564,"Le Quincieux",45.765360730742,4.698650555792,0,S10742,2
1565,"Le Quincieux",45.765126381435,4.69866621336,0,S10742,2
1566,"Le Rafour",45.791101307532,4.764179017046,0,S10743,1
1567,"Le Rafour",45.791440693893,4.763885199982,0,S10743,2
1572,"Le Rontet",45.781462326151,5.005371999461,0,S10746,2
1573,"Le Rontet",45.78164802194,5.00543697838,0,S10746,2
1574,"Le Rotagnier",45.74181283531,4.975897813276,0,S10747,1
1575,"Le Rotagnier",45.742099793901,4.975178766256,0,S10747,1
1576,"Le Roule",45.730786016718,4.810818006984,0,S10748,1
1577,"Le Roule",45.730842335627,4.810631473605,0,S10748,1
1580,"Le Roulet",45.785126996314,4.89788395106,0,S10749,1
1581,"Le Roulet",45.784880956438,4.897443025818,0,S10749,1
1586,"Le Vergoin",45.804316972332,4.838535987134,0,S10752,1
1588,"Le Vernay",45.809384039314,4.857136048856,0,S10753,1
1590,"Le Vernay - Ombrosa",45.804399006694,4.843018029712,0,S10754,2
1591,"Le Vernay - Ombrosa",45.804193028032,4.842874015547,0,S10754,2
1592,"Le Villard",45.875486620463,4.860707799775,0,S10755,2
1594,"Le Visan",45.764094970289,4.788772326948,0,S10756,1
1595,"Lefevre",45.772038072752,4.911257435419,0,S10757,1
1596,"Lefevre",45.771966120641,4.91046942622,0,S10757,1
1602,"Leon Bourgeois",45.727733001843,4.900787988157,0,S10760,1
1603,"Leon Bourgeois",45.727770950412,4.90093537583,0,S10760,1
1604,"Leon Favre",45.743264528643,4.807333258588,0,S10761,1
1605,"Leon Favre",45.743648978643,4.807618949638,0,S10761,1
1608,"Les Anemones",45.727588599915,5.005266099174,0,S10763,1
1609,"Les Anemones",45.727793025743,5.005606979975,0,S10763,1
1610,"Les Anzieux",45.850445028104,4.837844018557,0,S10764,1
1611,"Les Anzieux",45.849936454349,4.837520089286,0,S10764,1
1612,"Les Arpinieres",45.734689167948,4.749287216776,0,S10765,1
1613,"Les Arpinieres",45.734784219828,4.749471331717,0,S10765,1
1614,"Les Aulnes",45.810266118548,4.759516643523,0,S10766,1
1615,"Les Aulnes",45.809856988675,4.759873026453,0,S10766,1
1616,"Les Balmes",45.664665194875,4.894891903839,0,S10767,1
1617,"Les Balmes",45.664780039385,4.89498710075,0,S10767,1
1618,"Les Balmones",45.829434072228,4.771795515202,0,S10768,1
1619,"Les Balmones",45.829453728905,4.771719132262,0,S10768,1
1622,"Les Battieres",45.75476868725,4.782223237416,0,S10771,1
1623,"Les Battieres",45.754575811287,4.781160289333,0,S10771,1
1624,"Les Biesses",45.792727970124,5.037961288548,0,S10772,2
1625,"Les Biesses",45.792878880714,5.036926351469,0,S10772,2
1627,"Les Bluets",45.781951823984,4.897737082266,0,S10773,1
1628,"Les Bottieres",45.721584556124,4.792815669013,0,S10774,1
1630,"Les Brosses de Marcy",45.775876988036,4.705461969655,0,S10775,1
1631,"Les Brosses de Marcy",45.775533958906,4.70520203084,0,S10775,1
1632,"Les Broussatieres",45.726993029304,4.696929000222,0,S10776,2
1633,"Les Broussatieres",45.726777966245,4.696857963726,0,S10776,1
1634,"Les Bruyeres",45.817908476011,4.86653382996,0,S10777,1
1635,"Les Bruyeres",45.817098834373,4.865312213123,0,S10777,1
1636,"Fort de Vaise - Les Carriers",45.77014620725,4.809183932111,0,S10778,2
1637,"Fort de Vaise - Les Carriers",45.770358004758,4.809371978894,0,S10778,2
1638,"Les Cedres",45.740338726889,4.955437702306,0,S10779,2
1639,"Les Cedres",45.740303958685,4.955384624418,0,S10779,2
1640,"Les Selettes",45.65840208525,4.820382376488,0,S10780,1
1641,"Les Selettes",45.658654897619,4.820753179643,0,S10780,1
1642,"Les Chaux",45.736432984643,4.752744220768,0,S10781,1
1643,"Les Chaux",45.736085726321,4.752150556656,0,S10781,1
1644,"Les Chavannes",45.85639459484,4.796513730097,0,S10782,1
1646,"Les Chenes",45.74324514058,4.955871729494,0,S10783,2
1647,"Les Chenes",45.743094080004,4.955787399995,0,S10783,1
1650,"Les Cigales",45.683810785838,4.824096415369,0,S10785,2
1651,"Les Cigales",45.683863030735,4.824175826187,0,S10785,2
1654,"Les Coquelicots",45.765553336324,4.748030270171,0,S10787,1
1655,"Les Coquelicots",45.765664225894,4.747057722625,0,S10787,1
1656,"Les Cotes",45.687046685613,4.822675739355,0,S10788,2
1657,"Les Cotes",45.687292885697,4.822532738484,0,S10788,2
1658,"Les Coutures",45.725818992951,4.80472103022,0,S10789,1
1659,"Les Coutures",45.725309872919,4.80394420465,0,S10789,1
1660,"Les Dauphins",45.659430845325,4.904931061777,0,S10790,2
1661,"Les Dauphins",45.659399342958,4.905520080097,0,S10790,2
1663,"Les Dominicaines",45.655067049733,4.815714091898,0,S10792,2
1664,"Les Dominicaines",45.653767452286,4.815463112974,0,S10792,1
1667,"Les Epinettes",45.835621187971,4.876608600942,0,S10794,1
1668,"Les Epinettes",45.83555213998,4.876875839421,0,S10794,1
1671,"Les Essarts",45.732668898564,4.89891418776,0,S10795,2
1672,"Les Essarts",45.732902009571,4.899006019488,0,S10795,2
1673,"Les Esses",45.771804939478,4.817233199166,0,S10796,1
1674,"Les Esses",45.772429380423,4.819525178791,0,S10796,1
1675,"Les Esses",45.772270965961,4.817630962531,0,S10796,1
1676,"Les Etroits",45.750518280097,4.819217830908,0,S10797,1
1677,"Les Etroits",45.750610660722,4.819517721584,0,S10797,1
1679,"Les Fraisiers",45.673336367232,4.787596194422,0,S10799,1
1680,"Les Fraisiers",45.673299276652,4.787645901601,0,S10799,1
1683,"Les Gambins",45.852730761024,4.796117758179,0,S10801,2
1685,"Les Gaulnes",45.791612992419,5.034266974043,0,S10802,1
1686,"Les Gaulnes",45.791458004301,5.033860969181,0,S10802,1
1687,"Les Geraniums",45.666595527186,4.862565075035,0,S10803,2
1688,"Les Glaieuls",45.685505048074,4.942504922433,0,S10804,1
1689,"Les Glaieuls",45.685531426739,4.9425318563,0,S10804,1
1690,"Les Grandes Terres",45.73576907128,4.978346042035,0,S10805,1
1691,"Les Grandes Terres",45.736008994436,4.97764501093,0,S10805,1
1692,"Les Grandes Treves",45.759148479764,4.713660218447,0,S10806,2
1693,"Les Grandes Treves",45.759039769249,4.714118442578,0,S10806,1
1694,"Les Greffieres",45.811800039642,4.819064030142,0,S10807,2
1695,"Les Greffieres",45.811753037673,4.819028054294,0,S10807,2
1696,"Les Grillons",45.746432060954,4.958942036809,0,S10808,2
1697,"Les Grillons",45.746272626447,4.958060147442,0,S10808,2
1700,"Les Hautannes",45.879451790604,4.800807553149,0,S10810,2
1701,"Les Hautpres",45.758713631636,4.734112797548,0,S10811,1
1702,"Les Hautpres",45.758745272339,4.733895574184,0,S10811,2
1703,"Les Ifs",45.716172283811,4.796223412273,0,S10812,1
1704,"Les Ifs",45.716020809107,4.796563575949,0,S10812,1
1709,"Les Lauriers",45.880775854639,4.866080531613,0,S10815,2
1713,"Champvert - Les Massues",45.759509984145,4.795749040964,0,S10817,1
1715,"Les Maures",45.663773293081,4.857583153698,0,S10818,1
1716,"Les Maures",45.663816007963,4.857632991488,0,S10818,1
1720,"Les Mollieres",45.84019096146,4.848355062498,0,S10821,2
1721,"Les Mollieres",45.840275929812,4.848516453384,0,S10821,2
1722,"Les Mouettes",45.782746984415,5.024839067323,0,S10822,1
1723,"Les Mouettes",45.782606204039,5.024597893141,0,S10822,2
1726,"Les Muriers",45.696086640766,4.825794059279,0,S10824,1
1727,"Les Muriers",45.696357827959,4.825742091977,0,S10824,1
1728,"Centre Nautique",45.763593951563,4.956429168133,0,S10825,1
1729,"Centre Nautique",45.763567012491,4.956380041203,0,S10825,1
1730,"Les Noyeraies",45.810842779155,4.751124265792,0,S10826,1
1731,"Les Noyeraies",45.81069128768,4.751053254645,0,S10826,1
1734,"Les Oliviers",45.686859976415,4.787335952688,0,S10828,1
1735,"Les Oliviers",45.686936972454,4.786774053106,0,S10828,1
1736,"Les Oncheres",45.777419025762,4.92566303466,0,S10829,1
1737,"Les Oncheres",45.777400428154,4.925466235559,0,S10829,1
1738,"Les Ormes",45.806735933937,4.821023444108,0,S10830,1
1739,"Les Ormes",45.806907355444,4.821005451169,0,S10830,1
1740,"Les Pepinieres",45.75939882132,4.808366526636,0,S10831,2
1741,"Les Pepinieres",45.759187698066,4.808961434169,0,S10831,1
1742,"Les Pervenches",45.855217010504,4.87420294372,0,S10832,2
1743,"Les Pervenches",45.855173320936,4.874176448557,0,S10832,2
1744,"Les Peupliers - RN 7",45.801894384101,4.739432141746,0,S10833,1
1745,"Les Peupliers - RN 7",45.802427143779,4.739352475873,0,S10833,1
1746,"Les Places",45.722896043566,4.694495009238,0,S5768,1
1747,"Les Places",45.72291402245,4.694556047649,0,S5768,1
1749,"Les Pommieres",45.75701201765,4.809660911511,0,S10836,1
1750,"Les Pommieres",45.756841286819,4.808830267398,0,S10836,1
1752,"Les Provences",45.735340986068,4.792954022101,0,S10837,1
1753,"Les Pyes",45.738707117983,4.963240446377,0,S10838,1
1755,"Les Roches",45.77742600476,4.795307947094,0,S10839,1
1756,"Les Roches",45.776958530552,4.794902942242,0,S10839,1
1759,"Les Sapins",45.67319301846,4.783370967911,0,S10841,2
1760,"Les Sapins",45.673236043449,4.783304958931,0,S10841,2
1761,"Les Sources",45.792629220507,4.782543469141,0,S10842,1
1762,"Les Sources",45.792499688855,4.782704978728,0,S10842,2
1763,"Les Sources - La Romaine",45.790383782017,4.783974702679,0,S10843,1
1764,"Les Sources - La Romaine",45.789975484689,4.784123792996,0,S10843,1
1765,"Corbas Les Taillis",45.669698010585,4.908083001438,0,S10844,2
1766,"Corbas Les Taillis",45.669706977741,4.908221825218,0,S10844,2
1768,"Les Terres St G. les Ollieres",45.760969789245,4.705418913802,0,S10846,2
1769,"Les Terres St G. les Ollieres",45.760848010009,4.705726022584,0,S10846,1
1770,"Les Tilleuls",45.79848930624,4.803934369119,0,S10847,1
1771,"Les Tilleuls",45.797944956117,4.803456966933,0,S10847,1
1774,"Les Tours",45.780803284737,4.79607824381,0,S10849,2
1777,"Les Vercheres",45.817399127454,4.901320199187,0,S5321,1
1778,"Les Vercheres",45.817682362543,4.901925604649,0,S5321,1
1781,"Les Villas",45.818243974523,4.775612124597,0,S10853,1
1782,"Les Villas",45.817665946907,4.775702326859,0,S10853,1
1783,"Les Violettes",45.667196504904,4.86664951629,0,S10854,2
1784,"Lesire",45.780810782221,4.913778058586,0,S10855,1
1785,"Lesire",45.780913984085,4.913780065134,0,S10855,1
1786,"Letra",45.828545752492,4.791944980587,0,S10856,1
1787,"Letra",45.828627247678,4.79233489068,0,S10856,1
1794,"Limonest Centre",45.837509044349,4.771641972418,0,S10859,1
1795,"Limonest Centre",45.837446982428,4.771565046667,0,S10859,1
1797,"Limonest Cimetiere",45.84269019051,4.768583956527,0,S10860,2
1798,"Limonest Place",45.83607489378,4.771471780168,0,S10861,1
1799,"Limonest Place",45.835204017047,4.7713687967,0,S10861,1
1802,"Longchamp",45.781414090342,4.886159201391,0,S10863,1
1803,"Longchamp",45.781270043404,4.885247984026,0,S10863,1
1804,"Longefer",45.739342765698,4.880147784196,0,S10864,1
1805,"Longefer",45.740084044058,4.881795008548,0,S10864,1
1809,"Lorette",45.707138651602,4.798119544536,0,S10866,1
1812,"Louis Braille",45.695993003848,4.949685949287,0,S10868,1
1814,"Louise Michel",45.774081994047,4.894446993859,0,S10869,1
1815,"Louise Michel",45.774144990192,4.894419952147,0,S10869,1
1817,"Louise Michel",45.774526991059,4.89372521133,0,S10869,1
1820,"Ludovic Bonin",45.726969030808,4.853813976238,0,S10871,1
1821,"Ludovic Bonin",45.727051960105,4.853905034977,0,S10871,1
1822,"Luther King",45.73189798131,4.901213014222,0,S10872,1
1823,"Luther King",45.732068001383,4.901261040047,0,S10872,1
1825,"Luzy",45.756196975535,4.801637976422,0,S10873,1
1826,"Luzy",45.75625198341,4.802276947723,0,S10873,1
1834,"Lycee Jean Perrin",45.794510297809,4.814590399239,0,S10878,1
1835,"Lycee Jean Perrin",45.794433336555,4.814406782344,0,S10878,1
1842,"Lyon-Plage",45.788988450478,4.819668245666,0,S10882,2
1843,"Lyon-Plage",45.787932991083,4.81832701117,0,S10882,1
1845,"Machy",45.871693652655,4.756390454963,0,S10884,2
1846,"Machy",45.871766700592,4.756342132429,0,S10884,1
1862,"Mairie de Villeurbanne",45.766516044007,4.880233983363,0,S10893,1
1863,"Mairie de Villeurbanne",45.766776811983,4.880246042731,0,S10893,1
1864,"Mairie du 4eme",45.774060031797,4.827505036285,0,S10894,1
1865,"Mairie du 4eme",45.774064982726,4.828178639448,0,S10894,1
1866,"Mairie du 5eme",45.758070960754,4.80106201542,0,S10895,1
1867,"Mairie du 5eme",45.758031097592,4.800975359383,0,S10895,1
1873,"Centre Hospitalier Mont d'Or",45.860364038851,4.835205014145,0,S10899,1
1874,"Centre Hospitalier Mont d'Or",45.859514614264,4.835057630231,0,S10899,1
1875,"Hopital Antoine Charial",45.747422949486,4.751915440737,0,S5765,1
1876,"Hopital Antoine Charial",45.747332991578,4.752987956964,0,S5765,1
1877,"Maison des Pretres",45.650946394806,4.812782232481,0,S10901,1
1878,"Maison des Pretres",45.651870238104,4.813337113281,0,S10901,1
1882,"Maisons Neuves",45.755667018855,4.875481058701,0,S10902,1
1885,"Manissieux Clemenceau",45.703765762761,4.98340135799,0,S10903,1
1886,"Manissieux Clemenceau",45.703924069514,4.983177713216,0,S10903,1
1887,"Manissieux Place Balzac",45.705316002919,4.980020981041,0,S10904,1
1889,"Manufacture Montluc",45.749291890105,4.859290081537,0,S5906,2
1892,"Manufacture Montluc",45.749404168435,4.859500948174,0,S5906,1
1893,"Marais",45.785463557676,4.901631816104,0,S10906,1
1895,"Marcel Pagnol",45.712985816876,4.888117180445,0,S10907,2
1896,"Marcel Pagnol",45.712624097292,4.888190359849,0,S10907,2
1899,"Marcy INTEFP",45.786847989426,4.714225981645,0,S10909,1
1900,"Marcy INTEFP",45.786127098446,4.714787899061,0,S10909,1
1901,"Marcy l'Etoile",45.782224745943,4.705652696621,0,S10910,1
1902,"Marcy l'Etoile",45.781397963283,4.705599969442,0,S10910,2
1905,"Marcy l'Orme",45.7789378243,4.70572978205,0,S10912,1
1906,"Marcy l'Orme",45.778866425333,4.70570097917,0,S10912,1
1907,"Marcy Vercheres",45.785894649015,4.706621315017,0,S10913,1
1908,"Marcy Vercheres",45.786034994332,4.706761033555,0,S10913,1
1917,"Marjolet",45.677060172291,4.824086946707,0,S10918,2
1918,"Marjolet",45.677206491392,4.824388882024,0,S10918,2
1921,"Marne Pagere",45.741837210416,4.914819612208,0,S10920,2
1922,"Marne Pagere",45.742221170386,4.916521743249,0,S10920,2
1923,"Marronniers",45.814380348878,4.861711513589,0,S10921,1
1924,"Marronniers",45.814926993633,4.862433047334,0,S10921,1
1932,"Maryse Bastie",45.734727252151,4.87448433694,0,S10923,1
1936,"Mas du Taureau",45.78509060415,4.910852212153,0,S10924,2
1937,"Mas du Taureau",45.785076040735,4.910159981288,0,S10924,1
1938,"Mas du Taureau",45.785652018148,4.910837067791,0,S10924,1
1939,"Rebufer",45.727436404959,4.915533132732,0,S5314,1
1940,"Rebufer",45.727601347785,4.915797913564,0,S5314,1
1941,"Massard",45.727952025235,5.018833983231,0,S10926,2
1942,"Massard",45.727990005533,5.018420030637,0,S10926,2
1950,"Menival Centre",45.756670017611,4.786255387931,0,S10930,1
1951,"Menival Centre",45.756933573385,4.785727053972,0,S10930,1
1952,"Menival Sainte-Anne",45.756756627109,4.783108851111,0,S5761,1
1953,"Menival Sainte-Anne",45.75637436067,4.782063159939,0,S5761,1
1954,"ENS Lyon",45.731452970205,4.830570051537,0,S5910,1
1955,"ENS Lyon",45.731504834551,4.829503796398,0,S5910,1
1956,"Merlo",45.719037641005,4.78703520026,0,S10933,1
1957,"Merlo",45.718961796549,4.787622921314,0,S10933,1
1958,"Merlus",45.718694373384,4.790797785817,0,S10934,1
1959,"Merlus",45.718652219988,4.790667407849,0,S10934,1
1963,"Meyzieu Centre social",45.763884703079,5.001831056908,0,S10937,1
1967,"Fenelon",45.774330568247,5.018314480616,0,S10939,1
1968,"Meyzieu Gadelles",45.778504883672,5.017668961918,0,S10940,2
1970,"Meyzieu Gare Liberation",45.771780810538,5.000631525402,0,S10941,1
1971,"Meyzieu Gare Liberation",45.771824853855,5.000672249171,0,S10941,1
1974,"Meyzieu Le Carreau",45.776244000519,4.990865977884,0,S10943,2
1975,"Meyzieu Le Carreau",45.775554397154,4.9891464493,0,S10943,2
1976,"Pommier Liberation",45.776538687568,4.998147608869,0,S10944,1
1977,"Pommier Liberation",45.776596978233,4.998194941391,0,S10944,1
1983,"Meyzieu Plantees",45.760702507932,5.01186266575,0,S10948,1
1986,"Mi Plaine - Pelossier",45.71711055135,4.95753245104,0,S10951,1
1987,"Mi Plaine - Pelossier",45.71719896841,4.95760091266,0,S10951,1
1988,"Michelet",45.812401955187,4.890674036275,0,S10952,1
1989,"Michelet",45.812284027057,4.890103977077,0,S10952,1
1996,"Minguettes Darnaise",45.690602006454,4.866525951585,0,S10955,1
2005,"Mions Jules Valles",45.654289894744,4.949372179042,0,S10958,2
2008,"Parc Nelson Mandela",45.669234266331,4.950838361078,0,S10960,1
2009,"Parc Nelson Mandela",45.669940676379,4.950268428543,0,S10960,2
2010,"Momet",45.779397849569,4.750914254822,0,S10961,1
2011,"Momet",45.77934874342,4.751105056849,0,S10961,1
2012,"Moncey - Bonnel",45.76194460004,4.850199376999,0,S10962,1
2018,"Monplaisir La Plaine",45.726089725981,4.88028078108,0,S10966,1
2019,"Monplaisir La Plaine",45.726308734058,4.880149528584,0,S10966,1
2020,"Mont Blanc",45.724630274125,4.887076176914,0,S10967,2
2021,"Mont Blanc",45.724185876352,4.887222657713,0,S10967,2
2023,"Mont-Louis",45.717593947724,4.790902926044,0,S10969,1
2024,"Mont-Louis",45.717504311523,4.791297268047,0,S10969,1
2025,"Mont Saint Paul",45.746425756093,4.964984653395,0,S10970,2
2026,"Mont Saint Paul",45.746704798136,4.96498512606,0,S10970,2
2027,"Montagny",45.732239360524,4.85345708265,0,S10971,1
2028,"Montagny",45.732598466765,4.85349921154,0,S10971,1
2033,"Montanay Les Dimes",45.877872337853,4.867905642997,0,S10975,2
2036,"Montanay Mairie",45.87895898693,4.858352939981,0,S10977,2
2037,"Montanay Mairie",45.87873395751,4.858677940082,0,S10977,2
2039,"Montchat Kimmerling",45.752910833699,4.898622523885,0,S10978,1
2041,"Montchat Pinel",45.752145602439,4.896259543866,0,S10979,1
2042,"Montchat Pinel",45.752807989229,4.894535061208,0,S10979,1
2047,"Montcourant",45.809314966186,4.732741060898,0,S10981,1
2048,"Montcourant",45.808468017916,4.733807019136,0,S10981,1
2049,"Montee de Champagne",45.790770913763,4.802494316733,0,S10982,2
2050,"Montee de Champagne",45.790493808321,4.802816423501,0,S10982,2
2051,"Montee des Soldats",45.795337149256,4.858739308887,0,S10983,1
2052,"Montee des Soldats",45.795514347712,4.858464338132,0,S10983,1
2053,"Louis Bouquet",45.797817019137,4.818789047452,0,S10984,1
2054,"Louis Bouquet",45.798132031502,4.818986005339,0,S10984,1
2055,"Montessuy Calmette",45.791688525489,4.84359443654,0,S10985,1
2056,"Montessuy Calmette",45.79147175239,4.843224271115,0,S10985,1
2057,"Montessuy Fleming",45.794466978153,4.846722056869,0,S10986,1
2058,"Montessuy Fleming",45.794421657356,4.846562870808,0,S10986,1
2059,"Montessuy Gutenberg",45.795036302582,4.849267482908,0,S10987,1
2060,"Montessuy Hauts St Clair",45.79428098525,4.848930051969,0,S10988,1
2061,"Montferrat",45.740657004076,4.920343682109,0,S10989,1
2062,"Montferrat",45.740158986595,4.920650944264,0,S10989,1
2063,"Montfort",45.862751295437,4.75240190779,0,S10990,2
2064,"Montfort",45.862051991248,4.752591058767,0,S10990,1
2065,"Montgay Ampere",45.822632964928,4.863040003291,0,S10991,1
2066,"Montgay Ampere",45.822471015889,4.86298453505,0,S10991,1
2071,"Montgolfier",45.727508237524,4.964042706902,0,S10993,2
2072,"Montgolfier",45.727331383805,4.964291320918,0,S10993,2
2073,"Mont Louis",45.7891789898,4.786803133838,0,S10994,1
2074,"Mont Louis",45.789270055564,4.78716745022,0,S10994,1
2077,"Corbas Les Roses",45.680971545279,4.912369050545,0,S10996,1
2078,"Corbas Les Roses",45.680903003243,4.912609838181,0,S10996,1
2079,"Montmein Centre",45.707584165753,4.806515936865,0,S10997,1
2080,"Montmein Centre",45.708275328672,4.807420573024,0,S10997,1
2081,"Montmein Nord",45.710118416661,4.805473302016,0,S10998,1
2082,"Montmein Nord",45.710092422455,4.806654148827,0,S10998,2
2083,"Montmein Sud",45.706143220928,4.808185654366,0,S10999,1
2084,"Montmein Sud",45.706184447058,4.808765622574,0,S10999,2
2085,"Montribloud",45.766873368847,4.790966835122,0,S11000,1
2086,"Montribloud",45.766676385651,4.791331017421,0,S11000,1
2087,"Ambroise Pare",45.741831008443,4.885290947835,0,S5311,1
2088,"Ambroise Pare",45.741661000337,4.884353989174,0,S5311,1
2090,"Mermoz - Moselle",45.732103711068,4.882615291582,0,S5922,1
2091,"Mermoz - Moselle",45.7324069545,4.881588052311,0,S5922,1
2092,"Moulin a Vent",45.72944399382,4.853144949472,0,S5917,2
2093,"Moulin a Vent",45.729618001138,4.853027976585,0,S5917,2
2096,"Moulin Carron",45.789231962076,4.779832969794,0,S11004,1
2097,"Moulin Carron",45.789294983214,4.779410151988,0,S11004,1
2098,"Moulin d'Amont",45.773459980215,4.981327969631,0,S11005,1
2099,"Moulin d'Amont",45.773375449607,4.980769994621,0,S11005,1
2100,"La Mulatiere Belle Rive",45.740056384121,4.811996981699,0,S11006,2
2101,"La Mulatiere Belle Rive",45.740465036948,4.812152013445,0,S11006,2
2102,"Maison du Confluent",45.725886032961,4.816658997011,0,S11007,1
2103,"Maison du Confluent",45.726220045054,4.816554010551,0,S11007,1
2104,"Murget",45.737550986686,4.975976997024,0,S11008,2
2105,"Murget",45.737524984319,4.976053010042,0,S11008,2
2106,"Musset - Poudrette",45.757478020705,4.92128199812,0,S11009,1
2109,"Nicolas Garnier - Poudrette",45.75552741303,4.921132100559,0,S11010,1
2110,"Nicolas Garnier - Poudrette",45.755211811747,4.921155850898,0,S11010,1
2111,"Nadaud - Vitriolerie",45.74350002784,4.83394101311,0,S11011,1
2113,"Narcel",45.729401001435,4.796439012842,0,S11012,1
2114,"Narcel",45.729364956097,4.796366970752,0,S11012,1
2118,"Neuville",45.875765011341,4.83847397268,0,S5640,2
2128,"Niepce",45.779618328617,4.816402146175,0,S11021,2
2129,"Noailleux",45.846791037583,4.868265979623,0,S11022,1
2130,"Noailleux",45.846745018264,4.868174984681,0,S11022,2
2133,"Norenchal",45.835759972744,4.847192959812,0,S11023,1
2139,"Notre Dame du Grand Port",45.819327019192,4.840602027209,0,S11026,1
2140,"Nouveau cimetiere Rillieux",45.824168966555,4.906147007052,0,S11027,1
2141,"Nouveau cimetiere Rillieux",45.82400301276,4.906110019626,0,S11027,1
2142,"Nouveau cimetiere Venissieux",45.690192652473,4.880665112347,0,S11028,1
2143,"Nouveau cimetiere Venissieux",45.690147110827,4.88068869619,0,S11028,1
2146,"Novy Jicin",45.696475849085,4.896870587841,0,S11030,1
2147,"Oasis",45.715005988247,4.801163042793,0,S11031,2
2148,"Oasis",45.714976897267,4.801065500968,0,S11031,2
2149,"Observance",45.768156955155,4.809572056705,0,S11032,1
2150,"Observance",45.768662958169,4.809667990072,0,S11032,1
2151,"Oullins Clement Desormes",45.722368244811,4.804274986108,0,S11033,1
2156,"Oullins Mairie",45.714246354135,4.807339821001,0,S11035,1
2157,"Oullins Mairie",45.714407034287,4.806906055052,0,S11035,1
2166,"Pan Perdu",45.683742794993,4.927267410773,0,S11040,2
2167,"Pan Perdu",45.683367117432,4.926774574883,0,S11040,2
2168,"Panorama",45.797580046139,4.875854667572,0,S11041,1
2169,"Panorama",45.797357569062,4.875741441308,0,S11041,1
2170,"Gargantua",45.820663037076,4.757812302392,0,S11042,1
2171,"Gargantua",45.821180596107,4.757603380279,0,S11042,1
2176,"Grand Parc Miribel Jonage",45.798028085647,4.941996550227,0,S11045,2
2185,"Parc Tete d'Or Churchill",45.776303154933,4.844899794987,0,S11050,1
2186,"Parc Tete d'Or Churchill",45.776231599554,4.845282439718,0,S11050,1
2187,"Parc Tete d'Or - Duquesne",45.773139413725,4.850325140644,0,S11051,1
2189,"Parc Tete d'Or - Duquesne",45.773248545171,4.850677428162,0,S11051,1
2190,"Paris",45.824810980861,4.77346298048,0,S11052,1
2191,"Paris",45.824717997478,4.773434008791,0,S11052,1
2195,"Les Saules",45.817256030256,4.758435978622,0,S11055,1
2196,"Les Saules",45.817398457911,4.758518076148,0,S11055,1
2198,"Part-Dieu Auditorium",45.762221265093,4.853118463274,0,S5420,1
2206,"Part-Dieu Jules Favre",45.764324709488,4.858461937302,0,S11061,1
2213,"Part-Dieu Renaudel",45.757542958599,4.858720974962,0,S11062,1
2232,"Passage Comtois",45.729333747799,4.876150712528,0,S11065,1
2233,"Passage Comtois",45.729663850731,4.875883179955,0,S11065,1
2234,"Passerelle Palais Justice",45.761107731976,4.831218277301,0,S11066,1
2235,"La Boutasse",45.733599999744,5.018235018435,0,S11067,1
2236,"La Boutasse",45.73407096513,5.018062319339,0,S11067,1
2237,"Paul Bert - Baraban",45.756869573943,4.867353075632,0,S11068,1
2238,"Paul Bert - Turbil",45.756773309518,4.8684288186,0,S11069,1
2241,"Paul Chevalier",45.823684948121,4.894879977899,0,S11071,1
2243,"Paul Santy",45.770461375698,4.770444959821,0,S11072,2
2244,"Pavillon Chirurgical",45.702826802458,4.80795972683,0,S11073,1
2252,"Pelloutier",45.687549185725,4.902658921244,0,S11080,2
2253,"Pelloutier",45.687615651452,4.902507899011,0,S11080,2
2255,"Pennachy",45.695217443028,4.807708187716,0,S11081,1
2256,"Pennachy",45.695691255727,4.807446865482,0,S11081,1
2257,"Penon",45.666859956535,4.962294001935,0,S11082,1
2258,"Penon",45.666701286322,4.962542572337,0,S11082,1
2259,"Pensionnat",45.735885980612,5.016891986351,0,S11083,1
2260,"Pensionnat",45.736144841337,5.01678786939,0,S11083,1
2294,"Perroncel",45.7768147525,4.884157877394,0,S11090,1
2297,"Petit Perron",45.698618381765,4.808080958449,0,S11092,1
2298,"Petit Perron",45.698504053914,4.808061184114,0,S11092,1
2299,"Petit Sainte Foy",45.74562784331,4.809149259532,0,S11093,1
2305,"Petite Guille",45.731795770597,4.859182216972,0,S5918,1
2306,"Petite Guille",45.731528651602,4.85945274531,0,S5918,2
2307,"Peupliers",45.793770965426,4.871535279253,0,S11096,1
2308,"Peupliers",45.793875020248,4.871299962572,0,S11096,1
2314,"Picard",45.70783203508,4.864850987316,0,S11100,1
2315,"Picard",45.707785963259,4.865628986016,0,S11100,1
2316,"Pierre Audry",45.762215942233,4.808377370086,0,S11101,2
2317,"Pierre Audry",45.761872256799,4.808451947384,0,S11101,2
2318,"Pierre-Benite Centre",45.702554828478,4.821276786044,0,S11102,1
2319,"Pierre-Benite Centre",45.703611979496,4.820928684618,0,S11102,1
2322,"Pierre-Benite Haute Roche",45.700168999687,4.822958037092,0,S11103,1
2323,"Pierre-Benite Haute Roche",45.700206031381,4.82307005396,0,S11103,1
2327,"Pierre Drevet",45.807782029507,4.871958948035,0,S11105,1
2328,"Pierre Drevet",45.807415999479,4.87207206113,0,S11105,1
2329,"Pierre Joseph Proudhon",45.773604902711,4.890337893093,0,S11106,2
2330,"Pierre Joseph Proudhon",45.773944416803,4.89124122762,0,S11106,1
2332,"Pierre Scize",45.76736854967,4.823283765573,0,S11107,1
2333,"Pierre Blanche",45.821774494745,4.751334253681,0,S11108,1
2334,"Pierre Blanche",45.82150969186,4.7510908902,0,S11108,1
2335,"Essarts - Laennec",45.735207694665,4.889417386859,0,S11109,1
2336,"Essarts - Laennec",45.73538898815,4.888965998106,0,S11109,1
2344,"Piscine d'Alai",45.75230803403,4.771317019271,0,S5762,1
2345,"Piscine d'Alai",45.752346031652,4.771166980485,0,S5762,1
2350,"Place Docteurs Merieux",45.733204509197,4.825489781906,0,S11114,1
2357,"Place Bertone",45.777787752711,4.834830717223,0,S11117,1
2358,"Place Croix-Luizet",45.780113526073,4.882779801349,0,S11118,1
2359,"Place Croix-Luizet",45.779936054478,4.882269861503,0,S11118,1
2364,"Croix-Rousse",45.774466957143,4.83273997763,0,S5223,1
2367,"Croix-Rousse",45.774855993353,4.832432066915,0,S5223,1
2369,"Croix-Rousse",45.774629011306,4.832932948511,0,S5223,2
2378,"Place des Buers",45.77936884283,4.891789112928,0,S11124,1
2379,"Place des Buers",45.779659975771,4.891791963236,0,S11124,1
2384,"Place Flammarion",45.779313635126,4.820414899438,0,S11127,2
2385,"Place Flammarion",45.779588596474,4.821006210972,0,S11127,2
2388,"Place Flammarion",45.779978207821,4.820483509797,0,S11127,2
2396,"Place Henri",45.748279972364,4.879698988048,0,S11131,2
2397,"Place Henri",45.74846600966,4.879386025635,0,S11131,2
2402,"Place Stalingrad",45.749460693183,4.852016284048,0,S11133,1
2403,"Place Wilson",45.774464988321,4.868651581063,0,S11134,1
2404,"Place Wilson",45.774311821971,4.868258630514,0,S11134,1
2406,"Plambeau",45.853454621927,4.758613920358,0,S11136,1
2407,"Plambeau",45.853420591608,4.758522250842,0,S11136,1
2408,"Plan du Loup (Les Razes)",45.735256980362,4.786093953962,0,S11137,1
2409,"Plan du Loup (Les Razes)",45.735335025692,4.786205013441,0,S11137,1
2410,"Point du Jour",45.756378402671,4.797532338787,0,S11138,1
2411,"Point du Jour",45.756447039004,4.798026998785,0,S11138,1
2412,"Poleymieux Eglise",45.857702620679,4.802549785561,0,S11139,1
2414,"Poleymieux La Tour",45.861385036183,4.798772987617,0,S11140,2
2416,"Poleymieux Mairie",45.85661194075,4.799744015356,0,S11141,2
2421,"Polyclinique de Rillieux",45.82248447299,4.8874983902,0,S11144,1
2422,"Polyclinique de Rillieux",45.822321212319,4.887156070691,0,S11144,1
2425,"Poncettes",45.753097679989,4.804290326404,0,S11146,1
2426,"Poncettes",45.753792490915,4.805440150648,0,S11146,1
2427,"Porte de Lyon",45.821661984235,4.762862943008,0,S11147,1
2430,"Professeur Guerin",45.764718975867,4.806545048153,0,S11149,2
2431,"Professeur Guerin",45.76443397604,4.80654202498,0,S11149,2
2437,"Pre Gaudry - Yves Farge",45.741954309067,4.833015713452,0,S11152,1
2438,"Pre Gaudry - Yves Farge",45.742086590746,4.833312764664,0,S11152,1
2441,"Professeur Roux",45.72086439808,4.858951157967,0,S11154,1
2445,"Proudhon",45.760258325603,4.955485814891,0,S11156,1
2446,"Proudhon",45.76053586999,4.955550470828,0,S11156,1
2447,"Pont Blanc",45.719822961181,4.7993159785,0,S11157,1
2448,"Pont Blanc",45.719789824786,4.799546185056,0,S11157,1
2450,"Pont Bonaparte",45.759755614417,4.830089607758,0,S11158,2
2465,"Pont d'Oullins",45.718159025978,4.809889560281,0,S11162,1
2467,"Pont de Bourgoin",45.716226000881,4.854665302306,0,S11164,1
2470,"Pont de Collonges RG",45.81283243902,4.847635406613,0,S11166,2
2471,"Pont de Collonges RG",45.813375873831,4.848290980345,0,S11166,1
2477,"Pont de Fontaines",45.832151995454,4.849407056037,0,S11169,1
2478,"Pont de Fontaines",45.832102013017,4.849243038361,0,S11169,1
2479,"Pont de l'Universite",45.753610991443,4.833933990556,0,S11170,1
2480,"Pont de l'Universite",45.754194306832,4.833669354606,0,S11170,2
2482,"Pont de la Graviere",45.728316811675,4.780058340014,0,S11171,2
2483,"Pont de la Graviere",45.728332513278,4.779750587018,0,S11171,2
2486,"Pont Guillotiere RD",45.759128993584,4.837704024953,0,S11172,1
2487,"Pont de La Mulatiere",45.730452010679,4.815136553562,0,S11173,1
2488,"Pont de La Mulatiere",45.730000222366,4.81583839976,0,S11173,2
2490,"Pont de La Mulatiere",45.729700954917,4.815214036256,0,S11173,2
2491,"Pont de La Mulatiere",45.729877368813,4.815202187556,0,S11173,1
2492,"Pont de la Sucrerie",45.772823044974,4.933601977462,0,S11174,1
2493,"Pont de la Sucrerie",45.773050016078,4.933316066926,0,S11174,1
2494,"Pont De Lattre RD",45.775362486782,4.83945426569,0,S11175,1
2495,"Pont De Lattre RD",45.772491919089,4.838204576021,0,S11175,1
2496,"Pont De Lattre RD",45.77279601603,4.837705955219,0,S11175,1
2499,"Pont des Planches",45.771270718099,4.90821161847,0,S11178,1
2500,"Pont des Planches",45.771290007305,4.907762322744,0,S11178,1
2506,"Pont Gallieni RD",45.750846387293,4.832025925448,0,S11180,1
2507,"Pont Gallieni RD",45.750439019926,4.831967976752,0,S11180,1
2512,"Pont Kitchener RD",45.752288738495,4.822190745179,0,S11182,1
2513,"Pont Kitchener RG",45.751383212288,4.823654186001,0,S5088,1
2514,"Pont Kitchener RG",45.751062997615,4.82378204512,0,S5088,1
2515,"Pont Kitchener RG",45.752214817178,4.824308956611,0,S5088,2
2519,"Pont Koenig RD",45.770585232825,4.812136230867,0,S5089,1
2520,"Pont Koenig RD",45.770004630117,4.812341614279,0,S5089,1
2521,"Pont Koenig RD",45.769792142742,4.812589288438,0,S5089,1
2526,"Pont Koenig RG",45.769265967035,4.814669023967,0,S11186,1
2531,"Pont Mouton",45.773306611677,4.80995629196,0,S11189,1
2537,"Pont Mouton",45.773732995956,4.809612992469,0,S11189,1
2541,"Musee des Confluences",45.734454994457,4.81897306313,0,S5908,1
2542,"Musee des Confluences",45.733584032373,4.817499970776,0,S5908,1
2543,"Musee des Confluences",45.733135709387,4.817897882966,0,S5908,1
2545,"Musee des Confluences",45.735086963317,4.817923000787,0,S5908,2
2547,"Pont Rouge",45.723540854683,4.783611680285,0,S11191,2
2548,"Pont Rouge",45.723661674073,4.78343713687,0,S11191,2
2549,"Pont Wilson RD",45.761094566547,4.837879170066,0,S5090,1
2551,"Pyrenees",45.721223143452,4.854199941534,0,S11193,1
2555,"Quai Gillet",45.771784588148,4.813669391108,0,S11195,1
2558,"Quarantaine",45.754066583928,4.823608331301,0,S11197,1
2559,"Quatre Chemins",45.740462991736,4.690811977161,0,S11198,1
2564,"Rancy",45.755049387183,4.853021860726,0,S11201,1
2572,"Rond-Point de Vancia",45.831910030908,4.909182978567,0,S11205,1
2573,"Rond-Point de Vancia",45.831517025146,4.908510042694,0,S11205,1
2579,"Republique - Reaux",45.730197274651,5.006857915801,0,S11208,2
2580,"Republique - Reaux",45.730117834255,5.007548161886,0,S11208,2
2583,"Reims",45.738867003323,4.910382948173,0,S11210,1
2584,"Reims",45.739584968625,4.911371684262,0,S11210,1
2594,"Residence",45.779358404751,4.77025984457,0,S11216,1
2595,"Residence",45.779018968101,4.770766968037,0,S11216,1
2597,"Residence Bertrand",45.784286662575,4.822659401568,0,S11217,1
2598,"Residence Le Parc",45.775904548404,4.817456708627,0,S11218,1
2599,"Revaison",45.701391183461,4.918051700126,0,S11219,1
2600,"Revaison",45.702025952966,4.917066571039,0,S11219,1
2602,"Rillieux Industrie",45.820393180182,4.877295101631,0,S11220,1
2603,"Rillieux Les Manges",45.811644934789,4.887574515023,0,S11221,1
2604,"Rillieux Les Manges",45.811816130492,4.887170552137,0,S11221,1
2607,"Rillieux Piscine",45.816080922486,4.887651704089,0,S11223,2
2608,"Rillieux Piscine",45.816151983055,4.887693622402,0,S11223,1
2609,"Rillieux Salignat",45.821138993259,4.896396491631,0,S11224,1
2610,"Rillieux Salignat",45.821048780362,4.896405163407,0,S11224,1
2613,"Centre Culturel",45.77816352678,4.778864238324,0,S11226,2
2614,"Centre Culturel",45.778988310825,4.77901664283,0,S11226,1
2615,"Robespierre",45.700764012217,4.948391960089,0,S11227,1
2616,"Robespierre",45.700664870129,4.948258150381,0,S11227,1
2617,"Rochecardon",45.787592529765,4.808681877727,0,S11228,1
2618,"Rochecardon",45.787335713211,4.808490206904,0,S11228,1
2619,"Rochetaillee",45.842660000331,4.835015049533,0,S11229,1
2620,"Rochetaillee",45.842076972833,4.834893999096,0,S11229,1
2636,"Rouget de l'Isle",45.754577184484,4.867221905984,0,S11235,1
2637,"Rouget de l'Isle",45.754481400629,4.865880201427,0,S11235,1
2638,"Route de Corbas",45.690192230636,4.890978612294,0,S11236,1
2639,"Route de Corbas",45.690908140246,4.89076777987,0,S11236,1
2640,"Route de Mions",45.684659009117,4.947515056882,0,S11237,1
2643,"Route de Mions",45.684393003938,4.9477435061,0,S11237,1
2646,"Rouville",45.769499525117,4.82501357521,0,S11239,1
2647,"Rouville",45.769524574438,4.823882858027,0,S11239,1
2649,"Rue d'Ypres",45.781860040746,4.81294394256,0,S11241,1
2650,"Rue d'Ypres",45.78121901976,4.812358037915,0,S11241,2
2652,"Fryd - Gerland",45.730217839068,4.83718289001,0,S11242,1
2653,"Fryd - Gerland",45.730190978238,4.837434998616,0,S11242,1
2654,"Rue de l'Aviation",45.663947870759,4.90892872516,0,S11243,1
2659,"Rue du Sablon",45.719085755345,4.859190920925,0,S11246,1
2660,"Rue du Sablon",45.719333724978,4.856567954571,0,S11246,1
2663,"Sablons",45.773522999698,4.962973784947,0,S11248,1
2664,"Sablons",45.774104003082,4.963542066983,0,S11248,1
2666,"Sala",45.756706889436,4.826723825583,0,S11250,1
2668,"Salle Polyvalente (D)",45.728872964629,5.012192106155,0,S11251,2
2669,"Salle Polyvalente (D)",45.728976156238,5.012017174109,0,S11251,2
2682,"Sathonay Drapeau",45.821277997935,4.872109943384,0,S11257,1
2683,"Sathonay Drapeau",45.821251018922,4.872048961768,0,S11257,1
2685,"Sathonay Gare",45.820275961067,4.874765974786,0,S11258,2
2686,"Sathonay Mairie",45.824002994966,4.874436017532,0,S11259,1
2688,"Sathonay Manutention",45.827690007374,4.872875943646,0,S11260,1
2689,"Sathonay Mutualite",45.820235807178,4.871108273259,0,S11261,1
2690,"Sathonay Mutualite",45.819998816123,4.870440768686,0,S11261,1
2694,"Sathonay Republique",45.826217956598,4.87421000134,0,S11263,1
2695,"Sathonay Republique",45.826037016277,4.874023062398,0,S11263,1
2698,"Saxe - Bonnel",45.76160809246,4.845927271051,0,S11265,1
2700,"Saxe - Gambetta",45.754465178624,4.846951620439,0,S5092,1
2701,"Saxe - Gambetta",45.753762158235,4.847395301901,0,S5092,1
2702,"Saxe - Gambetta",45.754228046156,4.846285017859,0,S5092,1
2705,"Saxe - Lafayette",45.763156985324,4.84501898323,0,S11267,1
2707,"Saxe - Lafayette",45.763934032305,4.844943944716,0,S11267,1
2708,"Saxe - Lafayette",45.763626029928,4.845648039191,0,S11267,1
2709,"Saxe - Paul Bert",45.756738280668,4.846335238284,0,S11268,1
2710,"Saxe - Paul Bert",45.75660603339,4.846472969092,0,S11268,1
2711,"Sept Chemins",45.744683828634,4.933080881377,0,S11269,1
2712,"Sept Chemins",45.744536018581,4.932855343049,0,S11269,1
2715,"Sergent Berthet",45.772067742748,4.804897088068,0,S11270,2
2719,"Serin - Saint-Charles",45.774161169268,4.813249051422,0,S11271,1
2720,"Serin - Saint-Charles",45.77449954978,4.813007028832,0,S11271,1
2721,"Serin - Saint-Charles",45.774248029697,4.813293995901,0,S11271,1
2724,"Severine",45.754290979842,4.91341295867,0,S11273,1
2725,"Severine",45.753887991309,4.912730057481,0,S11273,1
2726,"Sidoine Apollinaire",45.761166607282,4.804112176199,0,S11274,2
2727,"Sidoine Apollinaire",45.761400729983,4.803698300251,0,S11274,1
2728,"Simon Buisson",45.790610882731,4.791305952827,0,S11275,1
2729,"Simon Buisson",45.790454361466,4.791466231334,0,S11275,1
2732,"Soeur Vially",45.78771790345,4.842834408841,0,S11277,1
2733,"Soeur Vially",45.78734758307,4.842084155536,0,S11277,1
2734,"Solaize Mairie",45.639438985556,4.841473956643,0,S11278,1
2740,"Sous le Fort",45.670439563957,4.860943842121,0,S11281,2
2742,"Decines Centre",45.770480009351,4.956678982298,0,S5565,1
2743,"Decines Centre",45.770569038563,4.956837063763,0,S5565,1
2744,"Square des Monts d'Or",45.87420083852,4.827117847114,0,S11284,2
2745,"Square des Monts d'Or",45.874103962302,4.826821960629,0,S11284,1
2753,"Square Meunier",45.666995441708,4.903601822827,0,S11287,2
2754,"Square Meunier",45.667058384155,4.903604755133,0,S11287,2
2756,"St-Abdon",45.660999761213,4.79359410634,0,S11288,1
2759,"St-Alexandre",45.756469559876,4.81507580854,0,S11290,1
2760,"St-Alexandre",45.756849866668,4.814565726136,0,S11290,1
2767,"St Clair - Square Brosset",45.791860635107,4.860831608788,0,S11293,1
2768,"St Clair - Square Brosset",45.790584872199,4.860322688852,0,S11293,1
2771,"St Cyr",45.814473001455,4.818996962655,0,S11294,1
2772,"St Cyr",45.814564258283,4.819111787808,0,S11294,2
2775,"St Didier Ecoles",45.812164879996,4.798060934286,0,S11296,2
2776,"St Didier Ecoles",45.812038423813,4.798081014215,0,S11296,2
2777,"St Didier Eglise",45.809619179723,4.798397416882,0,S11297,1
2778,"St Didier Eglise",45.810416017754,4.798362058598,0,S11297,1
2779,"St Fons 4 Chemins",45.708208290834,4.856161564231,0,S11298,1
2782,"St Fons Albert Thomas",45.708004470655,4.859222847814,0,S11299,1
2783,"St Fons Albert Thomas",45.708097184051,4.85830205611,0,S11299,1
2785,"St Fons Albert Thomas",45.707686819445,4.858938493645,0,S11299,1
2786,"St Fons Parmentier",45.705519092871,4.860869048948,0,S11300,1
2787,"St Fons Parmentier",45.705562858326,4.860524181205,0,S11300,1
2788,"St Fortunat",45.825751071744,4.794613957413,0,S11301,1
2790,"St-Genis 2",45.682018974945,4.793214059621,0,S11302,1
2793,"Saint-Genis Barolles",45.679203376009,4.781899154168,0,S11303,1
2794,"St Genis Bellevue",45.693003417226,4.80238135758,0,S11304,1
2795,"St Genis Bellevue",45.692928006294,4.802884032698,0,S11304,1
2796,"St Genis Centre",45.694844717453,4.793125943262,0,S11305,2
2801,"St-Genis Collonges",45.692569979695,4.805848034436,0,S11306,1
2802,"St Genis Les Ollieres",45.758211097268,4.722209362871,0,S11307,1
2803,"St Genis Les Ollieres",45.758433711326,4.722746228111,0,S11307,1
2806,"St Genis Mairie",45.698445523012,4.794750909759,0,S11309,1
2807,"St Genis Mairie",45.698748164676,4.794905716074,0,S11309,1
2808,"St-Georges",45.757574373631,4.825760077722,0,S11310,1
2812,"St Germain Gare",45.888062029073,4.80427475562,0,S11313,1
2813,"St Germain Gare",45.888135662362,4.804200728545,0,S11313,1
2814,"St Germain Mairie",45.883445965585,4.802987039474,0,S11314,1
2824,"Challemel Lacour Artillerie",45.729577965665,4.843531964932,0,S5916,1
2826,"St Just",45.75779141703,4.815135361599,0,S5093,2
2827,"St Just",45.757483045392,4.815648690504,0,S5093,2
2828,"St Just",45.757603631564,4.815486956099,0,S5093,2
2835,"St Leonard",45.852254029616,4.833541976801,0,S11320,1
2836,"St Leonard",45.852017522592,4.833389787106,0,S11320,1
2838,"St-Martin",45.704862576312,4.950063187242,0,S11322,1
2842,"St-Paul",45.766646292004,4.828254147414,0,S11325,1
2853,"St-Pierre de Vaise",45.773019266657,4.807062130969,0,S11329,1
2854,"St-Pierre de Vaise",45.773253982296,4.808061946201,0,S11329,1
2857,"St Priest Beausejour",45.70530498134,4.946139973983,0,S11331,1
2868,"St Priest Hotel de Ville",45.695263469872,4.935490761305,0,S5480,1
2869,"St Priest Hotel de Ville",45.69476372771,4.934914840703,0,S5480,1
2878,"St Priest Les Roses",45.686680155782,4.939580892076,0,S11342,2
2879,"St Priest Les Roses",45.686760783003,4.939597545535,0,S11342,2
2880,"St Priest Menival",45.695731099445,4.952931110249,0,S11343,1
2881,"St Priest Menival",45.695679255911,4.953224090934,0,S11343,1
2882,"St Priest Plaine de Saythe",45.686760432952,4.946969550599,0,S11344,1
2883,"St Priest Plaine de Saythe",45.68701102661,4.947085971355,0,S11344,1
2885,"St-Rambert - l'Ile Barbe",45.797631720617,4.829735773689,0,S11345,1
2886,"St-Rambert - l'Ile Barbe",45.797392773474,4.829145855301,0,S11345,1
2890,"St Romain",45.840512006527,4.831110952176,0,S11348,1
2891,"St Romain",45.84016699153,4.830993029039,0,S11348,1
2893,"St-Vincent",45.767938731981,4.828016879283,0,S11349,1
2896,"Stade de Parilly",45.717229117145,4.891911865684,0,S11351,1
2897,"Stade de Parilly",45.71729293749,4.891876277744,0,S11351,1
2898,"Stade des Peupliers",45.778450044269,4.899336029492,0,S11352,1
2899,"Stade des Peupliers",45.778640010189,4.898936049904,0,S11352,1
2902,"Stade Henri Cochet",45.792682088683,4.838595706208,0,S11354,1
2903,"Stade Henri Cochet",45.792903171595,4.838773044784,0,S11354,1
2906,"Stade Laurent Gerin",45.696538216144,4.890977513768,0,S11356,2
2907,"Stade Laurent Gerin",45.696609566562,4.891006513691,0,S11356,2
2915,"Ste Consorce",45.776444043893,4.689515027875,0,S11360,1
2916,"Ste Eugenie",45.704356998297,4.797031066143,0,S11361,1
2917,"Ste Eugenie",45.705119965481,4.797414974063,0,S11361,1
2918,"Ste Foy Centre",45.734085525475,4.803553558528,0,S11362,1
2919,"Ste Foy Centre",45.734075121921,4.803617359931,0,S11362,1
2921,"Sainte-Foy Chatelain",45.735835026389,4.796308962944,0,S5500,1
2922,"Sainte-Foy Chatelain",45.73581500766,4.796212049496,0,S5500,1
2923,"Sainte-Foy Chatelain",45.736292777886,4.795670138652,0,S5500,1
2924,"Sainte-Foy Chatelain",45.73632593331,4.795800160424,0,S5500,1
2925,"Ste Foy Eglise",45.736940692834,4.805108362855,0,S11364,1
2927,"Ste Foy Hopital",45.731652017877,4.794552037755,0,S11365,1
2928,"Ste Foy Hopital",45.731189004153,4.794478021385,0,S11365,1
2933,"Place des Archives",45.746532093504,4.824849139914,0,S5517,1
2934,"Place des Archives",45.746831060838,4.82394983871,0,S5517,1
2935,"Surville Route de Vienne",45.718008015556,4.854768014383,0,S11369,1
2937,"Tabagnon",45.756842220108,4.743752297642,0,S11370,2
2939,"Tabagnon",45.756798910197,4.743673251347,0,S11370,2
2940,"Tache Velin",45.715600187907,4.871662322664,0,S11371,2
2941,"Tache Velin",45.716109828785,4.871415946547,0,S11371,2
2947,"Tassin Combattants",45.76942902416,4.757449056696,0,S11374,2
2948,"Tassin Combattants",45.769129719952,4.75834763546,0,S11374,2
2949,"Tassin Deperet",45.75807748308,4.760805803334,0,S11375,1
2950,"Tassin Deperet",45.758173300157,4.761787306574,0,S11375,1
2951,"Tassin Gare",45.760345037484,4.760766974533,0,S11376,1
2952,"Tassin Gare",45.760356726315,4.760713351258,0,S11376,1
2953,"Tassin Genetieres",45.758753037155,4.772159058346,0,S11377,1
2954,"Tassin Genetieres",45.75872100102,4.772137965537,0,S11377,1
2955,"Tassin Les Bruyeres",45.758104030802,4.751344995411,0,S11378,1
2956,"Tassin Les Bruyeres",45.757952928714,4.751130435316,0,S11378,1
2958,"Terraillon - Lessivas",45.743611392187,4.919479610029,0,S11380,1
2959,"Terraillon - Lessivas",45.743403693665,4.919508429663,0,S11380,1
2960,"Terrasse",45.74793747988,4.815437181926,0,S11381,1
2961,"Terrasse",45.74809508524,4.815637135483,0,S11381,1
2975,"Thibaudiere",45.750006928782,4.844652437704,0,S11385,1
2978,"Thibaudiere",45.750883945635,4.845283870131,0,S11385,1
2982,"Thiers - Lafayette",45.763750775313,4.862371021379,0,S5302,1
2983,"Thioley",45.715861240165,4.887942052611,0,S11387,2
2984,"Thioley",45.715822645266,4.888055911529,0,S11387,2
2985,"Timbaud",45.691520683654,4.900609076688,0,S11388,2
2987,"Tita Cois",45.771670930826,4.903702602221,0,S11390,1
2988,"Tita Cois",45.771169388016,4.904772525092,0,S11390,1
2989,"Titilleux",45.712188990085,4.875231408662,0,S11391,1
2990,"Titilleux",45.712193056367,4.875051712806,0,S11391,1
2991,"Terreaux Tobie Robatel",45.767207016029,4.831669948246,0,S11392,1
2992,"Le Tonkin",45.778512707824,4.865184506212,0,S11393,1
2993,"Le Tonkin",45.778367033016,4.865121977184,0,S11393,1
2994,"Tourvielle",45.754260783344,4.795586032118,0,S11394,1
2995,"Tourvielle",45.754133970641,4.795942965233,0,S11394,1
2997,"Treve Oray",45.850046637896,4.859989431197,0,S11396,1
2998,"Treve Oray",45.850019661398,4.859988191729,0,S11396,2
3000,"Treves Paques",45.816224983115,4.839724993884,0,S11397,1
3001,"Triangle de Bron",45.727476008645,4.928195982642,0,S11398,1
3003,"Trion",45.757553837138,4.812848599796,0,S11399,1
3004,"Trion",45.758171258629,4.812606347713,0,S11399,1
3005,"Trion",45.75860102505,4.812755055554,0,S11399,1
3011,"Trois Artichauts",45.752751998008,4.81732499425,0,S11403,1
3014,"Trois Renards",45.763607617891,4.773948358558,0,S11404,1
3015,"Tupinier",45.747358466161,4.706799946554,0,S11405,1
3016,"Tupinier",45.747329944045,4.707724361289,0,S11405,1
3017,"UFR Lyon-Sud",45.705011160194,4.809316746961,0,S11406,1
3018,"UFR Lyon-Sud",45.705074388358,4.809306739422,0,S11406,1
3019,"Union Nautique",45.79780241209,4.837850733824,0,S11407,2
3023,"Universite - Jean Jaures",45.747927734628,4.843439104462,0,S11409,1
3024,"Universite - Jean Jaures",45.748485345336,4.843863080453,0,S11409,1
3025,"Universite - Jean Jaures",45.748432726983,4.843397826851,0,S11409,1
3026,"Vaillant Couturier",45.706046029381,4.820917995852,0,S11410,1
3027,"Vaillant Couturier",45.70642364472,4.821161014682,0,S11410,1
3028,"Valdo",45.750117023619,4.78420219917,0,S11411,1
3031,"Valensaut",45.72341591142,4.874733914751,0,S11413,1
3032,"Valensaut",45.723775318012,4.873966544802,0,S11413,1
3034,"Valmy",45.775219701703,4.806054743243,0,S5094,1
3035,"Valmy",45.774891458708,4.80624581395,0,S5094,1
3037,"Val Rosay",45.793737974445,4.812892972701,0,S11415,1
3038,"Val Rosay",45.793433662702,4.811981245339,0,S11415,1
3040,"Valvert",45.765429961955,4.766851034463,0,S11416,2
3041,"Fort de Vancia",45.834585648781,4.909089357571,0,S11417,1
3042,"Fort de Vancia",45.833890044883,4.908827951923,0,S11417,1
3044,"Varichon",45.734088272467,4.871292809358,0,S11419,1
3046,"Vassieux",45.791850311334,4.866492775273,0,S11420,1
3047,"Vassieux",45.791818664637,4.865899419958,0,S11420,1
3052,"Vaulx Berthelot",45.788697024574,4.922088025942,0,S11423,2
3054,"Vaulx HDV Campus",45.776774028928,4.921389039811,0,S11424,1
3055,"Vaulx HDV Campus",45.776817978411,4.921392006062,0,S11424,1
3057,"Vaulx Jean Moulin",45.787296394514,4.916719709055,0,S11425,1
3058,"Vaulx Jean Moulin",45.787444555749,4.916147664173,0,S11425,1
3060,"Vaulx Lakanal",45.786936970641,4.919422049564,0,S11426,1
3070,"Vaulx Pasteur",45.785488519151,4.930337371252,0,S11433,1
3077,"Vaulx Pierre Frite",45.774600997728,4.932178956235,0,S11436,1
3078,"Vaulx Pierre Frite",45.774687179545,4.932259177007,0,S11436,1
3080,"Vaulx Place Boissier",45.786416009539,4.924472987384,0,S11437,2
3081,"Vaulx Place Boissier",45.786243981302,4.925613986889,0,S11437,2
3084,"Vaulx Thibaude",45.778492487448,4.929634313938,0,S11438,1
3085,"Vaulx Thibaude",45.778504742728,4.929493381298,0,S11438,1
3087,"Velten",45.799050918528,4.833519245718,0,S11440,1
3088,"Velten",45.79911400104,4.833600997453,0,S11440,1
3090,"Venissieux Le Charreard",45.698450553011,4.900661964235,0,S11442,1
3091,"Venissieux Marronniers",45.705404881282,4.877886348412,0,S11443,1
3092,"Venissieux Marronniers",45.705621871463,4.87744670776,0,S11443,1
3100,"Venissieux St Exupery",45.698484761388,4.894433377244,0,S11447,1
3101,"Venissieux St Exupery",45.698456029859,4.894509117007,0,S11447,1
3103,"Verdun - Victor Hugo",45.779267047644,4.996594334253,0,S11449,1
3104,"Verdun - Victor Hugo",45.779200288714,4.996372397768,0,S11449,1
3111,"Vernaison La Rossignole",45.641584104056,4.808191303168,0,S11452,1
3117,"Veyrie",45.813750183099,4.723307227137,0,S11456,1
3118,"Veyrie",45.813911522419,4.722915207505,0,S11456,1
3119,"Viabert - Anatole France",45.766567351046,4.868005064009,0,S11457,1
3120,"Viabert - Anatole France",45.766460038559,4.868373107224,0,S11457,1
3121,"Viala - Lacassagne",45.746108034191,4.885809966559,0,S11458,1
3122,"Vianney",45.793727333624,4.771770876869,0,S11459,1
3123,"Vianney",45.793523091544,4.772057777811,0,S11459,1
3124,"Victor Hugo",45.662797113907,4.949339067042,0,S11460,1
3125,"Victor Hugo",45.662992537563,4.949451034857,0,S11460,1
3128,"Route de Vienne",45.743090425244,4.850443735632,0,S5308,1
3129,"Vieux Crepieux",45.800015976581,4.877051048114,0,S11462,1
3131,"Alfred de Vigny",45.6994019405,4.936752302391,0,S5481,1
3132,"Alfred de Vigny",45.699374370404,4.93677669292,0,S5481,1
3133,"Villeneuve",45.785671150034,4.78296728658,0,S11464,2
3134,"Villeurbanne Bel Air",45.755293455328,4.912904144937,0,S11465,1
3135,"Villeurbanne Bel Air",45.755682463602,4.912819489147,0,S11465,1
3136,"Gare d'Albigny-Neuville",45.87648176107,4.835481917163,0,S11466,1
3137,"Gare d'Albigny-Neuville",45.876349164146,4.835372785011,0,S11466,1
3144,"Vincent Serre",45.768687013773,4.786835990173,0,S11469,2
3145,"Vincent Serre",45.768918957254,4.786325042033,0,S11469,1
3148,"Vitton - Belges",45.770086941502,4.856796811567,0,S11470,1
3149,"Vitton - Belges",45.770526058541,4.85648251204,0,S11470,1
3151,"Beauvisage - Pressense",45.728016005079,4.861684992284,0,S5919,1
3156,"Garibaldi - Berthelot",45.743101351553,4.847140271442,0,S5307,1
3157,"Place du Vercors",45.719687166356,5.006309529515,0,S11474,2
3167,"Yon Lug",45.710812402377,4.820112781912,0,S11478,1
3173,"Yvours",45.689728571209,4.826752526221,0,S11481,2
